NPI,Provider Name,Full Address,Phone,Specialty,Specialty_Classification,Specialty_Grouping,Latitude,Longitude
1154324101,"GATEWAY HEALTHCARE, INC","249 ROOSEVELT AVE, UNIT 205, PAWTUCKET, RI 02860",4017248400,Case Management Agency,Case Management,Agencies,41.881839132676,-71.382301875465
1649273830,HEBERT NURSING HOME INC,"180 LOG RD, SMITHFIELD, RI 02917",4012317016,Skilled Nursing Facility,Skilled Nursing Facility,Nursing & Custodial Care Facilities,41.9104251,-71.5519714
1346243490,"LIFE CARE AT HOME OF RHODE ISLAND, INC.","63 SOCKANOSSET CROSS RD, STE 1C, CRANSTON, RI 02920",5082386878,Home Health Agency,Home Health,Agencies,41.754064471135,-71.454604034014
1336142165,ARROWHEAD DENTAL ASSOCIATES,"4995 S COUNTY TRL, CHARLESTOWN, RI 02813",4013646300,General Practice Dentistry,Dentist,Dental Providers,41.386618384788,-71.641707588194
1376546267,RADIATION ONCOLOGY ASSOCIATES INC,"825 N MAIN ST, PROVIDENCE, RI 02904",4015219700,Radiation Oncology Physician,Radiology,Allopathic & Osteopathic Physicians,41.842545456819,-71.407401870696
1073516654,RADIOLOGY ASSOCIATES INC,"450 VETERANS MEMORIAL PKWY, BUILDING 2, EAST PROVIDENCE, RI 02914",4014353041,Diagnostic Ultrasound Physician,Radiology,Allopathic & Osteopathic Physicians,41.808027588584,-71.385984884079
1245233824,RADIOLOGY ASSOCIATES INC,"469 CENTERVILLE RD, SUITE 103, WARWICK, RI 02886",4017389002,Diagnostic Ultrasound Physician,Radiology,Allopathic & Osteopathic Physicians,41.697521870123,-71.478852154725
1043213754,RADIOLOGY ASSOCIATES INC,"235 PLAIN ST LOWR LEVEL, PROVIDENCE, RI 02905",4012728510,Diagnostic Ultrasound Physician,Radiology,Allopathic & Osteopathic Physicians,41.809314330494,-71.410955963153
1952304214,"P.C.S.-BRIDGEVIEW, INC.","510 E MAIN RD, UNIT 12, MIDDLETOWN, RI 02842",4018482043,Durable Medical Equipment & Medical Supplies,Durable Medical Equipment & Medical Supplies,Suppliers,41.521728728438,-71.283569329362
1356343651,NORTHEAST ORTHOTICS AND PROSTHETICS INC,"2 DUDLEY ST, STE 161, PROVIDENCE, RI 02905",4014445477,Prosthetic/Orthotic Supplier,Prosthetic/Orthotic Supplier,Suppliers,41.810745913892,-71.407240834819
1598767766,CLAFLIN CONTINUING CARE LLC,"1070 WILLETT AVE, RIVERSIDE, RI 02915",4014370806,Oxygen Equipment & Supplies (DME),Durable Medical Equipment & Medical Supplies,Suppliers,41.759250627232,-71.343713937418
1003818063,"HOPKINS MANOR, LTD.","610 SMITHFIELD ROAD, NORTH PROVIDENCE, RI 02904",4013536300,Skilled Nursing Facility,Skilled Nursing Facility,Nursing & Custodial Care Facilities,41.86434180000001,-71.4679852
1891797858,"ROSEWOOD MANOR, LTD","140 PITMAN ST, PROVIDENCE, RI 02906",4012744200,Skilled Nursing Facility,Skilled Nursing Facility,Nursing & Custodial Care Facilities,41.826860752889,-71.387188505006
1457355976,"CARLOW ORTHOPEDIC AND PROSTHETICS, INC","1580 PONTIAC AVENUE, CRANSTON, RI 02920",4017386450,Durable Medical Equipment & Medical Supplies,Durable Medical Equipment & Medical Supplies,Suppliers,41.740614881927,-71.460931582585
1538164686,"NEXT STEP BIONICS AND PROSTHETICS, INC","300 METRO CENTER BLVD, STE 215, WARWICK, RI 02886",4017368985,Prosthetic/Orthotic Supplier,Prosthetic/Orthotic Supplier,Suppliers,41.725122652641,-71.46115351253
1851397137,MED-CARE AMBULANCE LLC,"66 ILLINOIS AVE, WARWICK, RI 02888",4017381224,Land Ambulance,Ambulance,Transportation Services,41.740992907969,-71.441162499163
1437155546,SOUTH COUNTY NURSING AND REHABILITATION CENTER,"740 OAK HILL RD, NORTH KINGSTOWN, RI 02852",4012944545,Nursing Facility/Intermediate Care Facility,Nursing Facility/Intermediate Care Facility,Nursing & Custodial Care Facilities,41.560674857789,-71.488276430408
1295731321,CODAC INC,"1052 PARK AVE, CODAC CRANSTON, CRANSTON, RI 02910",4014615056,Substance Use Disorder Rehabilitation Clinic/Center,Clinic/Center,Ambulatory Health Care Facilities,41.782307494544,-71.444920573464
1649276726,MOUNT ST. RITA HEALTH CENTRE,"15 SUMNER BROWN RD, CUMBERLAND, RI 02864",4013336352,Skilled Nursing Facility,Skilled Nursing Facility,Nursing & Custodial Care Facilities,42.015725322108,-71.404730416158
1205832029,ANCHOR MEDICAL ASSOCIATES,"1 COMMERCE ST STE 100, LINCOLN, RI 02865",4017938484,General Practice Physician,General Practice,Allopathic & Osteopathic Physicians,41.938506730346,-71.454384251546
1831195551,MAJORS MEDICAL SUPPLY,"197 PUTNAM PIKE, JOHNSTON, RI 02919",4012317100,Customized Equipment (DME),Durable Medical Equipment & Medical Supplies,Suppliers,41.866519088196,-71.501748943976
1912903717,"DOMINION DIAGNOSTICS, LLC","211 CIRCUIT DRIVE, NORTH KINGSTOWN, RI 02852",8777349600,Clinical Medical Laboratory,Clinical Medical Laboratory,Laboratories,41.588072758821,-71.432732029283
1598762106,"TOLLGATE SLEEP DISORDERS CENTER, INC.","400 BALD HILL RD, SUITE 529, WARWICK, RI 02886",4017374115,Sleep Disorder Diagnostic Clinic/Center,Clinic/Center,Ambulatory Health Care Facilities,41.7269072,-71.4791128
1417954967,CEDAR CREST NURSING CENTRE INC,"125 SCITUATE AVE, CRANSTON, RI 02921",4019448500,Skilled Nursing Facility,Skilled Nursing Facility,Nursing & Custodial Care Facilities,41.778778093258,-71.480384084046
1831196955,"ASSISTED DAILY LIVING, INC","2809 POST RD, WARWICK, RI 02886",4017385470,Home Health Agency,Home Health,Agencies,41.708046548359,-71.451303612945
1730186776,KENT COUNTY MEMORIAL HOSPITAL,"11 KNIGHT ST, BLDG. D15, WARWICK, RI 02886",4017320022,Durable Medical Equipment & Medical Supplies,Durable Medical Equipment & Medical Supplies,Suppliers,41.731964771404,-71.46074752891
1598762304,"NHCC MEDICAL ASSOCIATES, INC.","275 BROADWAY, UNIT 2, NEWPORT, RI 02840",4018451472,Physical Medicine & Rehabilitation Physician,Physical Medicine & Rehabilitation,Allopathic & Osteopathic Physicians,41.497515007372,-71.307586133083
1720085657,"BAYSIDE ENDOSCOPY CENTER, LLC","33 STANIFORD ST, PROVIDENCE, RI 02905",4012741810,Endoscopy Clinic/Center,Clinic/Center,Ambulatory Health Care Facilities,41.808207133509,-71.411603826537
1649278250,ROGER WILLIAMS MEDICAL CENTER,"825 CHALKSTONE AVE, PROVIDENCE, RI 02908",4014562000,General Acute Care Hospital,General Acute Care Hospital,Hospitals,41.834046106806,-71.434322525691
1790783116,RIVERVIEW NURSING HOME. INC.,"546 MAIN ST, COVENTRY, RI 02816",4018216837,Nursing Facility/Intermediate Care Facility,Nursing Facility/Intermediate Care Facility,Nursing & Custodial Care Facilities,41.727152037902,-71.539996664276
1437157898,"SCALABRINI VILLA, INC.","860 N QUIDNESSETT RD, NORTH KINGSTOWN, RI 02852",4018841802,Skilled Nursing Facility,Skilled Nursing Facility,Nursing & Custodial Care Facilities,41.639753539067,-71.424136178682
1417955733,DISCOVERY HOUSE UTAH,"88 W WARWICK AVE, WEST WARWICK, RI 02893",4018218866,Substance Use Disorder Rehabilitation Clinic/Center,Clinic/Center,Ambulatory Health Care Facilities,41.696262925065,-71.523490736507
1053319368,"R.I.S.A.T., LLC","1625 DIAMOND HILL RD, WOONSOCKET, RI 02895",4017621511,Substance Use Disorder Rehabilitation Clinic/Center,Clinic/Center,Ambulatory Health Care Facilities,42.015686662895,-71.47818851846
1174521488,"R.I.S.A.T., LLC","66 PAVILION AVE, PROVIDENCE, RI 02905",4014619110,Mental Health Clinic/Center (Including Community Mental Health Center),Clinic/Center,Ambulatory Health Care Facilities,41.798179793432,-71.404047012174
1508864646,"ORCHARD VIEW MANOR , INC","135 TRIPPS LN, EAST PROVIDENCE, RI 02915",4014382250,Skilled Nursing Facility,Skilled Nursing Facility,Nursing & Custodial Care Facilities,41.790619161654,-71.354698023037
1093713174,"NEWPORT COUNTY COMMUNITY MENTAL HEALTH CENTER, INC","42 VALLEY ROAD, MIDDLETOWN, RI 02842",4018461213,Community/Behavioral Health Agency,Community/Behavioral Health,Agencies,41.521124141527,-71.294382364502
1962400929,"PERSONAL HOME HEALTH SERVICES, INC","10 NATE WHIPPLE HWY, STE 9, CUMBERLAND, RI 02864",4016581383,Home Health Agency,Home Health,Agencies,41.976516854271,-71.456854531103
1396744173,"VNA TECHNICARE, INC.","200 CORLISS ST UNIT 2, PROVIDENCE, RI 02904",4013359000,Department of Veterans Affairs (VA) Pharmacy,Department of Veterans Affairs (VA) Pharmacy,Suppliers,41.841711165646,-71.412262210291
1093714545,KENT COUNTY VISITING NURSE ASSOCIATION,"51 HEALTH LN, WARWICK, RI 02886",4017376050,Community Based Hospice Care Agency,"Hospice Care, Community Based",Agencies,41.705925445515,-71.479750293097
1043219553,KENT COUNTY VISITING NURSE ASSOCIATION,"51 HEALTH LN, WARWICK, RI 02886",4017376050,Home Health Agency,Home Health,Agencies,41.705925445515,-71.479750293097
1538168059,"ST JUDE HOME CARE, INC.","1006 RESERVOIR AVE, BASEMENT, CRANSTON, RI 02910",4019444489,Home Health Agency,Home Health,Agencies,41.773891091371,-71.450614654341
1245239680,"FELLOWSHIP HEALTH RESOURCES, INC","24 ALBION RD STE 210, LINCOLN, RI 02865",4016424416,Case Management Agency,Case Management,Agencies,41.948556548914,-71.465207485191
1366441719,"COMPREHENSIVE COMMUNITY ACTION, INC.","1090 CRANSTON ST, CRANSTON, RI 02920",4019431981,Federally Qualified Health Center (FQHC),Clinic/Center,Ambulatory Health Care Facilities,41.797024747554,-71.448618643748
1174522304,WEST BAY SURGICAL ASSOCIATES INC.,"390 TOLL GATE RD, STE.200, WARWICK, RI 02886",4017398010,Surgery Physician,Surgery,Allopathic & Osteopathic Physicians,41.703240494654,-71.475697462982
1386643294,KENT COUNTY MEMORIAL HOSPITAL,"455 TOLL GATE RD, WARWICK, RI 02886",4017377010,Cardiovascular Disease Physician,Internal Medicine,Allopathic & Osteopathic Physicians,41.704628145854,-71.478101034213
1023017944,KENT COUNTY MEMORIAL HOSPITAL,"455 TOLL GATE RD, WARWICK, RI 02886",4017377010,Rehabilitation Hospital Unit,Rehabilitation Unit,Hospital Units,41.704628145854,-71.478101034213
1679573232,INTERCITY AMBULANCE SERVICE,"457 DOUGLAS AVE, PROVIDENCE, RI 02908",4012738020,Ambulance,Ambulance,Transportation Services,41.8426127597,-71.427564672961
1538169107,NORTHEAST OXYGEN SERVICE,"457 DOUGLAS AVE, PROVIDENCE, RI 02908",4014449300,Oxygen Equipment & Supplies (DME),Durable Medical Equipment & Medical Supplies,Suppliers,41.8426127597,-71.427564672961
1235139742,WEST VIEW NURSING HOME,"239 LEGRIS AVE, WEST WARWICK, RI 02893",4018289000,Skilled Nursing Facility,Skilled Nursing Facility,Nursing & Custodial Care Facilities,41.696276133507,-71.507348126058
1366442899,THE TAVARES PEDIATRIC CENTER INC,"101 PLAIN ST, PROVIDENCE, RI 02903",4012727127,Skilled Nursing Facility,Skilled Nursing Facility,Nursing & Custodial Care Facilities,41.813750779664,-71.41255285135
1730180357,"UNIVERSAL AMBULANCE SERVICE, INC.","457 DOUGLAS AVE, PROVIDENCE, RI 02908",4012738020,Ambulance,Ambulance,Transportation Services,41.8426127597,-71.427564672961
1568463115,MEDICAL ASSOCIATES OF RHODE ISLAND INC.,"1180 HOPE ST, BRISTOL, RI 02809",4012538900,Dermatology Physician,Dermatology,Allopathic & Osteopathic Physicians,41.69530700065,-71.279375761677
1699776187,ODYSSEY HEALTHCARE OPERATING B LP,"2374 POST ROAD, SUITE 206, WARWICK, RI 02886",4017381492,Community Based Hospice Care Agency,"Hospice Care, Community Based",Agencies,41.71801618322,-71.443732668426
1639170772,LYNN HO MD INC,"320 PHILLIPS ST, STE 102, NORTH KINGSTOWN, RI 02852",4016672537,Family Medicine Physician,Family Medicine,Allopathic & Osteopathic Physicians,41.566146778067,-71.461705021768
1174525166,"MEDICAL ASSOCIATES OF RHODE ISLAND, INC.","1180 HOPE ST, BRISTOL, RI 02809",4012538900,Diagnostic Radiology Physician,Radiology,Allopathic & Osteopathic Physicians,41.69530700065,-71.279375761677
1811999576,"SCALLOP SHELL NURSING & REHABILITATION CENTER, INC.","981 KINGSTOWN RD, PEACE DALE, RI 02879",4017893006,Skilled Nursing Facility,Skilled Nursing Facility,Nursing & Custodial Care Facilities,41.449708038064,-71.492129246888
1053313791,"WATERVIEW RI SNF, LLC","1275 S BROADWAY, EAST PROVIDENCE, RI 02914",4014387020,Skilled Nursing Facility,Skilled Nursing Facility,Nursing & Custodial Care Facilities,41.806465963267,-71.372901374079
1528060290,EPISCOPAL HOUSING FOUNDATION OF RHODE ISLAND,"66 BENEFIT ST, PROVIDENCE, RI 02904",4012744505,Skilled Nursing Facility,Skilled Nursing Facility,Nursing & Custodial Care Facilities,41.831742472631,-71.409431489166
1629070206,"ST. CLARE HOME, INC.","309 SPRING ST, NEWPORT, RI 02840",4018493204,Adult Day Care Clinic/Center,Clinic/Center,Ambulatory Health Care Facilities,41.482465102198,-71.312850628518
1538161161,MEDICAL ASSOCIATES OF RI INC,"1180 HOPE ST, BRISTOL, RI 02809",4012538900,Dermatology Physician,Dermatology,Allopathic & Osteopathic Physicians,41.69530700065,-71.279375761677
1295737666,"THE PROVIDENCE COMMUNITY HEALTH CENTERS, INC.","325 PUBLIC ST, PROVIDENCE, RI 02905",4017522693,Federally Qualified Health Center (FQHC),Clinic/Center,Ambulatory Health Care Facilities,41.806008585544,-71.413059829917
1417959867,"THE PROVIDENCE COMMUNITY HEALTH CENTERS, INC","355 PRAIRIE AVE, PROVIDENCE, RI 02905",4014440570,Federally Qualified Health Center (FQHC),Clinic/Center,Ambulatory Health Care Facilities,41.804685674669,-71.414523283226
1508868035,"THE PROVIDENCE COMMUNITY HEALTH CENTERS, INC.","239 CRANSTON ST, PROVIDENCE, RI 02907",4014440580,Federally Qualified Health Center (FQHC),Clinic/Center,Ambulatory Health Care Facilities,41.813902422756,-71.42717483627
1053313593,"THE PROVIDENCE COMMUNITY HEALTH CENTERS, INC","375 ALLENS AVE, PROVIDENCE, RI 02905",4014440400,Federally Qualified Health Center (FQHC),Clinic/Center,Ambulatory Health Care Facilities,41.802792617946,-71.401390543163
1669474102,"THE PROVIDENCE COMMUNITY HEALTH CENTERS, INC.","40 CANDACE ST, PROVIDENCE, RI 02908",4014440550,Federally Qualified Health Center (FQHC),Clinic/Center,Ambulatory Health Care Facilities,41.835542422588,-71.422527137107
1669464699,"WESTERLY NURSING HOME, INC.","79 BEACH ST, WESTERLY, RI 02891",4015964925,Skilled Nursing Facility,Skilled Nursing Facility,Nursing & Custodial Care Facilities,41.359124166063,-71.83427383509
1477545549,"THE PROVIDENCE COMMUNITY HEALTH CENTERS, INC.","355R PRAIRIE AVE, SUITE 3, PROVIDENCE, RI 02905",4014440430,Dental Clinic/Center,Clinic/Center,Ambulatory Health Care Facilities,41.804685674669,-71.414523283226
1528050499,"THE HOLIDAY RETIREMENT HOME, INC.","30 SAYLES HILL RD, MANVILLE, RI 02838",4017651440,Skilled Nursing Facility,Skilled Nursing Facility,Nursing & Custodial Care Facilities,41.9654489,-71.480333
1801889035,STATE OF RHODE ISLAND,"111 HOWARD AVE, CRANSTON, RI 02920",4014621405,Long Term Care Hospital,Long Term Care Hospital,Hospitals,41.74492499999999,-71.46240279999999
1215920327,FOOT AND ANKLE INSTITUTE OF NEW ENGLAND,"400 BALD HILL RD, STE 503, WARWICK, RI 02886",4017387750,Podiatrist,Podiatrist,Podiatric Medicine & Surgery Service Providers,41.7269111,-71.4792824
1326032772,BALLOU HOME FOR THE AGED OF WOONSOCKET RHODE ISLAND,"60 MENDON RD, WOONSOCKET, RI 02895",4017690437,Skilled Nursing Facility,Skilled Nursing Facility,Nursing & Custodial Care Facilities,42.01683153918,-71.482915588589
1750375804,ROGER WILLIAMS HOSPITAL,"825 CHALKSTONE AVE, PROVIDENCE, RI 02908",4014562119,Ambulance,Ambulance,Transportation Services,41.834046106806,-71.434322525691
1346234135,"SHADY ACRES, INC.","415 GARDNER RD, WEST KINGSTON, RI 02892",4012958520,Nursing Facility/Intermediate Care Facility,Nursing Facility/Intermediate Care Facility,Nursing & Custodial Care Facilities,41.545982096026,-71.617100911322
1871588046,"ENZER & ASSOCIATES, PC","120 DUDLEY ST, SUITE 104, PROVIDENCE, RI 02905",4012744464,Plastic Surgery Within the Head and Neck (Plastic Surgery) Physician,Plastic Surgery,Allopathic & Osteopathic Physicians,41.810129566678,-71.411561079484
1457346413,NEWPORT HOSPITAL,"11 FRIENDSHIP ST, NEWPORT, RI 02840",4014446966,General Acute Care Hospital,General Acute Care Hospital,Hospitals,41.497621987067,-71.305999997157
1588659528,RHODE ISLAND HOSPITAL,"593 EDDY ST, PROVIDENCE, RI 02903",4014446966,General Acute Care Hospital,General Acute Care Hospital,Hospitals,41.810923220052,-71.407246567906
1487649430,THE MIRIAM HOSPITAL,"164 SUMMIT AVE, PROVIDENCE, RI 02906",4014446966,General Acute Care Hospital,General Acute Care Hospital,Hospitals,41.851210394131,-71.397910198872
1518952258,"OPHTHALMIC SURGEONS, LTD","1524 ATWOOD AVE, SUITE 240, JOHNSTON, RI 02919",4012722110,Specialist,Specialist,Other Service Providers,41.826806293832,-71.499927322472
1740275353,"NEUROHEALTH, INC.","227 CENTERVILLE RD, WARWICK, RI 02886",4017323332,Specialist,Specialist,Other Service Providers,41.698018470065,-71.468523381194
1245226844,RHODE ISLAND THERAPY SERVICES,"300 TOWER HILL RD, NORTH KINGSTOWN, RI 02852",4012958500,Physical Therapy Clinic/Center,Clinic/Center,Ambulatory Health Care Facilities,41.566207883594,-71.46364824046
1205822517,CRESTWOOD NURSING AND CONVALESCENT HOME INC,"568 CHILD ST, WARREN, RI 02885",4012451574,Skilled Nursing Facility,Skilled Nursing Facility,Nursing & Custodial Care Facilities,41.732108861802,-71.25483903087
1013903376,"CON-V-CARE, INC","262 POPLAR ST., WOONSOCKET, RI 02895",4017652100,Skilled Nursing Facility,Skilled Nursing Facility,Nursing & Custodial Care Facilities,42.008959415584,-71.487000949595
1831185198,"PEZZELLI NURSING HOME, INC","100 SMITHFIELD RD, NORTH PROVIDENCE, RI 02904",4013531710,Skilled Nursing Facility,Skilled Nursing Facility,Nursing & Custodial Care Facilities,41.8554482,-71.44889479999999
1255327391,SOUTH SHORE CENTER INC,"4705A OLD POST RD, CHARLESTOWN, RI 02813",4013647705,Mental Health Counselor,Counselor,Behavioral Health & Social Service Providers,41.384445515252,-71.655778839174
1811984404,TOWN OF TIVERTON,"85 MAIN RD, TIVERTON, RI 02878",4016256707,Land Ambulance,Ambulance,Transportation Services,41.670600322309,-71.18535074052
1972590552,COASTAL MEDICAL INC,"272 W EXCHANGE ST, SUITE 100, PROVIDENCE, RI 02903",4014215434,Clinical Medical Laboratory,Clinical Medical Laboratory,Laboratories,41.825359723006,-71.422889001151
1891782173,CENTRAL COVENTRY FIRE DISTRICT,"240 ARNOLD ROAD, COVENTRY, RI 02816",4018257800,Ambulance,Ambulance,Transportation Services,41.674376330417,-71.554720406702
1609863828,COASTAL MEDICAL INC,"10 DAVOL SQ, SUITE 400, PROVIDENCE, RI 02903",4014214000,Nurse Practitioner,Nurse Practitioner,Physician Assistants & Advanced Practice Nursing Providers,41.816592,-71.40678609999999
1659368702,"HAVEN HEALTH CENTER OF PAWTUCKET, LLC","70 GILL AVE, PAWTUCKET, RI 02861",4017227900,Skilled Nursing Facility,Skilled Nursing Facility,Nursing & Custodial Care Facilities,41.862828980456,-71.352078219546
1356338248,BETHANY HOME OF RHODE ISLAND,"111 SOUTH ANGELL STREET, PROVIDENCE, RI 02906",4018312870,Skilled Nursing Facility,Skilled Nursing Facility,Nursing & Custodial Care Facilities,41.829131497658,-71.383579427244
1366430738,THE WESTERLY AMBULANCE CORPS INC,"30 CHESTNUT ST, WESTERLY, RI 02891",4015964375,Ambulance,Ambulance,Transportation Services,41.375134362769,-71.825832932203
1669460028,WEST GLOCESTER FIRE DISTRICT,"2410 PUTNAM PIKE, CHEPACHET, RI 02814",4015685532,Ambulance,Ambulance,Transportation Services,41.919927241449,-71.777946508773
1528056991,"CHARLESTOWN AMBULANCE & RESCUE SERVICE, INC.","4891 OLD POST RD, CHARLESTOWN, RI 02813",4013643742,Ambulance,Ambulance,Transportation Services,41.374249830513,-71.666474267417
1780672709,"ORTHOPEDIC GROUP, INC.","588 PAWTUCKET AVE, PAWTUCKET, RI 02860",4017222400,Specialist,Specialist,Other Service Providers,41.8576916,-71.398601
1538158456,BURRILLVILLE NURSING HOME INC,"999 S MAIN ST, PASCOAG, RI 02859",4015683091,Skilled Nursing Facility,Skilled Nursing Facility,Nursing & Custodial Care Facilities,41.936563000467,-71.681068929348
1881684736,CHARLESGATE NURSING CENTER,"100 RANDALL ST, PROVIDENCE, RI 02904",4018615858,Skilled Nursing Facility,Skilled Nursing Facility,Nursing & Custodial Care Facilities,41.837913998964,-71.410057614463
1417947383,"WOOD RIVER HEALTH SERVICES, INC.","823 MAIN STREET, HOPE VALLEY, RI 02832",4015392461,Community/Behavioral Health Agency,Community/Behavioral Health,Agencies,41.4897493,-71.7365385
1063402964,"PHYSICIANS OF RHODE ISLAND MEDICAL ENTERPRISES, INC.","106 NATE WHIPPLE HWY, SUITE 101 CUMBERLAND MEDICAL CENTER, CUMBERLAND, RI 02864",4016582020,Internal Medicine Physician,Internal Medicine,Allopathic & Osteopathic Physicians,41.978741220445,-71.448915780735
1861482630,EAST GREENWICH FIRE DISTRICT,"284 MAIN ST, EAST GREENWICH, RI 02818",4018868686,Ambulance,Ambulance,Transportation Services,41.660004657873,-71.449868097663
1760472526,MEDICINE ASSOCIATES LTD,"9 PLEASANT ST, PROVIDENCE, RI 02906",4013318555,Internal Medicine Physician,Internal Medicine,Allopathic & Osteopathic Physicians,41.839143892261,-71.408681032541
1700876083,"KOH, INC.","175 NATE WHIPPLE HWY, SUITE 201, CUMBERLAND, RI 02864",4016712934,Family Medicine Physician,Family Medicine,Allopathic & Osteopathic Physicians,41.978607864324,-71.442173727488
1134119381,"H&T MEDICALS, INC","1738 BROAD ST, 101, CRANSTON, RI 02905",4017810800,Nursing Care Agency,Nursing Care,Agencies,41.778806059188,-71.400487410084
1578554275,PARK PEDIATRICS INC,"801 PARK AVE, CRANSTON, RI 02910",4012746575,Pediatrics Physician,Pediatrics,Allopathic & Osteopathic Physicians,41.778607342491,-71.433849743994
1750372322,HARRIS FIRE AND LIGHTING DISTRICT,"701 MAIN ST, COVENTRY, RI 02816",4018211521,Ambulance,Ambulance,Transportation Services,41.7225797,-71.5341822
1619968047,MOHAMMED ABIRI MD INC,"725 RESERVOIR AVE, SUITE 306, CRANSTON, RI 02910",4019441052,Surgery Physician,Surgery,Allopathic & Osteopathic Physicians,41.779773246725,-71.443272694269
1225029770,"CONCORD HEALTH SERVICES, INC","30 ROLFE SQ, CRANSTON, RI 02910",4017258400,Home Health Agency,Home Health,Agencies,41.777848686125,-71.435989659006
1902887029,HEATHERWOOD NURSING AND REHABILITATION CENTER INC,"398 BELLEVUE AVE, NEWPORT, RI 02840",4018496600,Skilled Nursing Facility,Skilled Nursing Facility,Nursing & Custodial Care Facilities,41.476895000809,-71.307905456254
1003897828,WOODLAND CONVALESCENT CENTER INC,"70 WOODLAND RD, NORTH SMITHFIELD, RI 02896",4017650499,Skilled Nursing Facility,Skilled Nursing Facility,Nursing & Custodial Care Facilities,41.959764800586,-71.49119170791
1891776522,AVALON NURSING HOME INC,"57 STOKES ST, WARWICK, RI 02889",4017381200,Skilled Nursing Facility,Skilled Nursing Facility,Nursing & Custodial Care Facilities,41.719545365101,-71.37491072631
1275514093,RJ HOLDING COMPANY LLC,"1725 BROAD ST, CRANSTON, RI 02905",4014679111,Non-Surgical Family Planning Clinic/Center,Clinic/Center,Ambulatory Health Care Facilities,41.779033532244,-71.400686857545
1730160151,"NES RHODE ISLAND, INC.","200 HIGH SERVICE AVE, OUR LADY OF FATIMA HOSPITAL, NORTH PROVIDENCE, RI 02904",4014563000,Emergency Medicine Physician,Emergency Medicine,Allopathic & Osteopathic Physicians,41.856687901371,-71.460663233926
1417939562,HOPKINS HILL ROAD FIRE DEPARTMENT,"1 BESTWICK TRL, COVENTRY, RI 02816",4018216866,Ambulance,Ambulance,Transportation Services,41.66824653457,-71.56952636883
1679555395,JOSEPH C CAMBIO MD LTD,"207 QUAKER LN, 1ST FLOOR, WEST WARWICK, RI 02893",4018287110,Urology Physician,Urology,Allopathic & Osteopathic Physicians,41.690583413538,-71.501270749591
1639151202,REHAB NEW ENGLAND PC,"10 OLD DIAMOND HILL ROAD, SENIOR REHAB CARE, CUMBERLAND, RI 02864",5086735500,Rehabilitation Clinic/Center,Clinic/Center,Ambulatory Health Care Facilities,41.952673136492,-71.402250986772
1447233788,WOMEN & INFANTS HOSPITAL OF RHODE ISLAND,"101 DUDLEY ST, PROVIDENCE, RI 02905",4012741122,Ambulatory Family Planning Facility,Clinic/Center,Ambulatory Health Care Facilities,41.810276961686,-71.411298380038
1447233853,HOPEHEALTH VISITING NURSE,"6 BLACKSTONE VALLEY PL, SUITE 515, LINCOLN, RI 02865",4014154230,Home Health Agency,Home Health,Agencies,41.9377511,-71.45718769999999
1578546875,"HAND THERAPY ASSOCIATES, LLC","150 MIDWAY RD, SUITE 173, CRANSTON, RI 02920",4019423343,Specialist,Specialist,Other Service Providers,41.760417804861,-71.456782150011
1831172907,SOUTH COUNTY HOME HEALTH,"14 WOODRUFF AVE, SUITE 7, NARRAGANSETT, RI 02882",4017820500,Home Health Agency,Home Health,Agencies,41.430924606817,-71.481973568328
1568445575,"JEANNE JUGAN RESIDENCE OF THE LITTLE SISTERS OF THE POOR, INC.","964 MAIN ST, PAWTUCKET, RI 02860",4017234314,Assisted Living Facility,Assisted Living Facility,Nursing & Custodial Care Facilities,41.865261244258,-71.39915508578
1235112921,EASTGATE NURSING AND RECOVERY CENTER INC.,"198 WATERMAN AVE, EAST PROVIDENCE, RI 02914",4014312087,Skilled Nursing Facility,Skilled Nursing Facility,Nursing & Custodial Care Facilities,41.821946791799,-71.371048353446
1568445278,WESTERLY HEALTH CENTER ASSOCIATES,"280 HIGH ST, WESTERLY, RI 02891",4013480020,Skilled Nursing Facility,Skilled Nursing Facility,Nursing & Custodial Care Facilities,41.391032530062,-71.823406000476
1851374508,LAKE MISHNOCK VOLUNTEER FIRE,"166 MISHNOCK RD, W GREENWICH, RI 02817",4013977353,Ambulance,Ambulance,Transportation Services,41.657249220362,-71.58465322076
1134102841,KARDOUS PRIMARY CARE INC,"1145 RESERVOIR AVE, STE 301, CRANSTON, RI 02920",4019465001,Internal Medicine Physician,Internal Medicine,Allopathic & Osteopathic Physicians,41.770150510926,-71.454415212977
1295718914,RHODE ISLAND NEUROSURGICAL INSTITUTE INC,"118 DUDLEY ST, PROVIDENCE, RI 02905",4012734155,Neurological Surgery Physician,Neurological Surgery,Allopathic & Osteopathic Physicians,41.810133371615,-71.411529190481
1689657249,"IMAGING NETWORK OF RHODE ISLAND, INC.","825 CHALKSTONE AVE, ROGERS WILLIAMS MEDICAL CENTER, PROVIDENCE, RI 02908",4014562204,Diagnostic Radiology Physician,Radiology,Allopathic & Osteopathic Physicians,41.834046106806,-71.434322525691
1760465256,TOWN OF LITTLE COMPTON,"60 SIMMONS RD, LITTLE COMPTON, RI 02837",4016352324,Ambulance,Ambulance,Transportation Services,41.510875789827,-71.167008964108
1366426801,NEPHROLOGY ASSOCIATES INC,"318 WATERMAN AVE, EAST PROVIDENCE, RI 02914",4014385950,Nephrology Physician,Internal Medicine,Allopathic & Osteopathic Physicians,41.82053396997,-71.368512977218
1396729604,TOWN OF MIDDLETOWN,"350 E MAIN RD, MIDDLETOWN, RI 02842",4018464478,Ambulance,Ambulance,Transportation Services,41.520400401897,-71.288333887865
1588648935,LINCOLN PEDIATRIC ASSOC INC,"6 BLACKSTONE VALLY PLACE, SUITE 306B, LINCOLN, RI 02865",4013314021,Pediatrics Physician,Pediatrics,Allopathic & Osteopathic Physicians,41.9377511,-71.45718769999999
1013991462,BECAUSE I MATTER WELLNESS INC,"120 WAYLAND AVE, SUITE 4B, PROVIDENCE, RI 02906",4014312953,Clinical Social Worker,Social Worker,Behavioral Health & Social Service Providers,41.827301265866,-71.388668721545
1831173301,MEDICAL & RENAL ASSO INC,"250 CENTERVILLE RD, WARWICK EXECUTIVE PARK, WARWICK, RI 02886",4017397380,Nephrology Physician,Internal Medicine,Allopathic & Osteopathic Physicians,41.697683007051,-71.470455568378
1093799207,ADULT DAY CENTER OF WESTERLY INC.,"5 UNION ST, WESTERLY, RI 02891",4015961336,Adult Day Care Clinic/Center,Clinic/Center,Ambulatory Health Care Facilities,41.375551733004,-71.831114777535
1689658791,ROGER WILLIAMS HOSPITAL,"825 CHALKSTONE AVE, PROVIDENCE, RI 02908",4014562000,Psychiatric Hospital Unit,Psychiatric Unit,Hospital Units,41.834046106806,-71.434322525691
1033193925,"THE MEDICAL GROUP OF RHODE ISLAND, INC.","1050 WARWICK AVE, WARWICK, RI 02888",4014676257,Internal Medicine Physician,Internal Medicine,Allopathic & Osteopathic Physicians,41.747585016113,-71.405000299108
1134103062,HORIZON NURSING SERVICES INC.,"23 ACORN ST, PROVIDENCE, RI 02903",4014531331,Nursing Care Agency,Nursing Care,Agencies,41.827806061446,-71.428370485485
1659355519,SAINT ELIZABETH MANOR EAST BAY,"1 DAWN HILL RD, BRISTOL, RI 02809",4012532300,Skilled Nursing Facility,Skilled Nursing Facility,Nursing & Custodial Care Facilities,41.68886024232,-71.264411266827
1972587699,VISITING NURSE SERVICES OF NEWPORT AND BRISTOL COUNTIES,"438 E MAIN RD STE 100, MIDDLETOWN, RI 02842",4016822100,Durable Medical Equipment & Medical Supplies,Durable Medical Equipment & Medical Supplies,Suppliers,41.521064918131,-71.285825639848
1215912738,HAROLD HORWITZ MD AND JOSEPH LOMBARDOZZI,"407 EAST AVE., SUITE 250, PAWTUCKET, RI 02860",4013512280,Specialist,Specialist,Other Service Providers,41.867625751075,-71.387271363588
1922083138,NEUROSURGERY ASSOCIATES INC,"3 DAVOL SQ, SUITE B200, PROVIDENCE, RI 02903",4014533545,Neurological Surgery Physician,Neurological Surgery,Allopathic & Osteopathic Physicians,41.8178493,-71.4060731
1104801349,BUTLER HOSPITAL,"345 BLACKSTONE BLVD, PROVIDENCE, RI 02906",4014556200,Substance Use Disorder Rehabilitation Hospital Unit,"Rehabilitation, Substance Use Disorder Unit",Hospital Units,41.844403030283,-71.386372388713
1528043288,CITY OF NEWPORT,"43 BROADWAY, NEWPORT, RI 02840",4018455392,Ambulance,Ambulance,Transportation Services,41.491878338204,-71.311539822043
1336125988,"THE RIGHT CHOICE PHYSICAL THERAPY, INC.","28 NOOSENECK HILL RD, SUITE #3, WEST GREENWICH, RI 02817",4013859530,Physical Therapy Assistant,Physical Therapy Assistant,"Respiratory, Developmental, Rehabilitative and Restorative Service Providers",41.657949106104,-71.603614261249
1083690044,PACE ORGANIZATION OF RHODE ISLAND,"10 TRIPPS LANE, RIVERSIDE, RI 02915",4016544789,Home Health Agency,Home Health,Agencies,41.795552482128,-71.35298786469
1215914015,"VITAL CARE OF RHODE ISLAND, INC.","1525 LOUISQUISSET PIKE, BUILDING A SUITE 205, LINCOLN, RI 02865",4017267744,Home Health Agency,Home Health,Agencies,41.8866111,-71.43950319999999
1609853431,"SARGENT REHABILITATION CENTER, INC.","800 QUAKER LN, WARWICK, RI 02818",4018866600,Comprehensive Outpatient Rehabilitation Facility (CORF),Clinic/Center,Ambulatory Health Care Facilities,41.671413311056,-71.499505123217
1366429102,OPHTHALMOLOGY INC,"150 E MANNING ST, PROVIDENCE, RI 02906",4012722020,Optometrist,Optometrist,Eye and Vision Services Providers,41.827427975684,-71.388533186357
1134106768,"UNIVERSITY NEUROSURGERY, INC.","1 DAVOL SQ, PROVIDENCE, RI 02903",4016218700,Neurological Surgery Physician,Neurological Surgery,Allopathic & Osteopathic Physicians,41.8175356,-71.4065605
1265419972,"NEUROSURGERY FOUNDATION, INC.","55 CLAVERICK ST, PROVIDENCE, RI 02903",4014904162,Neurological Surgery Physician,Neurological Surgery,Allopathic & Osteopathic Physicians,41.8178345,-71.4120547
1134106719,"NEUROSURGICAL CARE, LLC","235 PLAIN ST, PROVIDENCE, RI 02905",4015219909,Neurological Surgery Physician,Neurological Surgery,Allopathic & Osteopathic Physicians,41.809314330494,-71.410955963153
1619954104,"EAST COAST PRIMARY CARE, INC.","63 EDDIE DOWLING HWY, SUITE 3, NORTH SMITHFIELD, RI 02896",4017668200,Internal Medicine Physician,Internal Medicine,Allopathic & Osteopathic Physicians,41.981657018459,-71.514556668785
1770560237,URGENT CARE OF PAWTUCKET,"100 SMITHFIELD AVE, PAWTUCKET, RI 02860",4017258600,Urgent Care Clinic/Center,Clinic/Center,Ambulatory Health Care Facilities,41.861084696864,-71.411572121122
1699752923,PRIME HEALTHCARE SERVICES LANDMARK LLC,"115 CASS AVE, WOONSOCKET, RI 02895",4017694100,General Acute Care Hospital,General Acute Care Hospital,Hospitals,42.005241866766,-71.496283145402
1902883275,PRIME HEALTHCARE SERVICES-LANDMARK LLC,"116 EDDIE DOWLING HWY, NORTH SMITHFIELD, RI 02896",4017660800,Rehabilitation Hospital,Rehabilitation Hospital,Hospitals,41.981235893471,-71.513981279463
1396722666,PRIME HEALTHCARE SERVICES-LANDMARK LLC,"115 CASS AVE, WOONSOCKET, RI 02895",4017694100,Psychiatric Hospital Unit,Psychiatric Unit,Hospital Units,42.005241866766,-71.496283145402
1518944941,"FRANK MICHAEL D'ALESSANDRO, MD INC","2 WAKE ROBIN RD, STE 103, LINCOLN, RI 02865",4013343105,Internal Medicine Physician,Internal Medicine,Allopathic & Osteopathic Physicians,41.934931200728,-71.474414736975
1811974264,GIL TEIXEIRA DO INC,"400 MASSASOIT AVE, STE 300, EAST PROVIDENCE, RI 02914",4014342704,Internal Medicine Physician,Internal Medicine,Allopathic & Osteopathic Physicians,41.830634714333,-71.364485115536
1043297112,LANDMARK MEDICAL CENTER,"115 CASS AVE, WOONSOCKET, RI 02895",4017694100,Cardiovascular Disease Physician,Internal Medicine,Allopathic & Osteopathic Physicians,42.005241866766,-71.496283145402
1982681060,LANDMARK MEDICAL CENTER,"115 CASS AVE, WOONSOCKET, RI 02895",4017694100,Nuclear Medicine Physician,Nuclear Medicine,Allopathic & Osteopathic Physicians,42.005241866766,-71.496283145402
1619954724,LANDMARK MEDICAL CENTER,"115 CASS AVE, WOONSOCKET, RI 02895",4017694100,Occupational Medicine Physician,Preventive Medicine,Allopathic & Osteopathic Physicians,42.005241866766,-71.496283145402
1831176817,NORTHERN RI REHAB MANAGEMENT ASSOCIATES LP,"116 EDDIE DOWLING HWY, NORTH SMITHFIELD, RI 02896",4017660800,Cardiovascular Disease Physician,Internal Medicine,Allopathic & Osteopathic Physicians,41.981235893471,-71.513981279463
1285611392,LANDMARK MEDICAL CENTER,"115 CASS AVE, WOONSOCKET, RI 02895",4017694100,Nurse Practitioner,Nurse Practitioner,Physician Assistants & Advanced Practice Nursing Providers,42.005241866766,-71.496283145402
1629055751,LANDMARK MEDICAL CENTER,"115 CASS AVE, WOONSOCKET, RI 02895",4017694100,Clinical Pathology/Laboratory Medicine Physician,Pathology,Allopathic & Osteopathic Physicians,42.005241866766,-71.496283145402
1306823307,NORTHERN RI REHAB MANAGEMENT ASSOCIATES LP,"116 EDDIE DOWLING HWY, NORTH SMITHFIELD, RI 02896",4017660800,Nuclear Medicine Physician,Nuclear Medicine,Allopathic & Osteopathic Physicians,41.981235893471,-71.513981279463
1285611285,NORTHERN RI REHAB MANAGEMENT ASSOCIATES LP,"116 EDDIE DOWLING HWY, NORTH SMITHFIELD, RI 02896",4017660800,Clinical Pathology/Laboratory Medicine Physician,Pathology,Allopathic & Osteopathic Physicians,41.981235893471,-71.513981279463
1114905718,TOWN OF PORTSMOUTH,"2300 E MAIN RD, PORTSMOUTH, RI 02871",4016831200,Ambulance,Ambulance,Transportation Services,41.59257012754,-71.253376449053
1720066301,MILLER CHIROPRACTIC INC,"863 BROADWAY, EAST PROVIDENCE, RI 02914",4014343000,Chiropractor,Chiropractor,Chiropractic Providers,41.817716441855,-71.369109115732
1588642789,"ANNE CUSHING-BRESCIA, MD, INC.","100 SMITHFIELD AVE, PAWTUCKET, RI 02860",4017250900,Internal Medicine Physician,Internal Medicine,Allopathic & Osteopathic Physicians,41.861084696864,-71.411572121122
1639157779,"CVT SURGICAL GROUP, INC.","2 DUDLEY ST, SUITE 407, PROVIDENCE, RI 02905",4012747546,Thoracic Surgery (Cardiothoracic Vascular Surgery) Physician,Thoracic Surgery (Cardiothoracic Vascular Surgery),Allopathic & Osteopathic Physicians,41.810745913892,-71.407240834819
1003895905,MEDICAL HOMES OF RHODE ISLAND INC,"49 OLD POCASSET RD, JOHNSTON, RI 02919",4019442450,Skilled Nursing Facility,Skilled Nursing Facility,Nursing & Custodial Care Facilities,41.81554027676,-71.514637948952
1659350312,MANSOLILLO MANSOLILLO & MANSOLILLO DDS,"1347 HARTFORD AVE, JOHNSTON, RI 02919",4018611080,Dentist,Dentist,Dental Providers,41.823567755744,-71.497039919423
1245219070,NORTHWEST COMMUNITY HEALTH CARE,"36 BRIDGE WAY, PASCOAG, RI 02859",4015670800,Clinic/Center,Clinic/Center,Ambulatory Health Care Facilities,41.956997890028,-71.702193765757
1225017486,EMMA PENDLETON BRADLEY HOSPITAL,"1011 VETERANS MEMORIAL PKWY, EAST PROVIDENCE, RI 02915",4014321000,Psychiatric Hospital,Psychiatric Hospital,Hospitals,41.792200431618,-71.365827849388
1821078932,GATEWAY HEALTHCARE INC,"101-103 BACON ST, PAWTUCKET, RI 02860",4017223560,Developmentally Disabled Services Day Training Agency,"Day Training, Developmentally Disabled Services",Agencies,41.872590948471,-71.367014785577
1902886757,NORTH PROVIDENCE PRIMARY CARE ASSOC INC,"1830 MINERAL SPRING AVE, NORTH PROVIDENCE, RI 02904",4013511900,Internal Medicine Physician,Internal Medicine,Allopathic & Osteopathic Physicians,41.861443382855,-71.461948362782
1407836109,"ATWOOD GASTROENTEROLOGY SERVICES, LTD.","1524 ATWOOD AVE, JOHNSTON, RI 02919",4013830400,Gastroenterology Physician,Internal Medicine,Allopathic & Osteopathic Physicians,41.826806293832,-71.499927322472
1376523928,TOWN OF JAMESTOWN,"50 NARRAGANSETT AVE, JAMESTOWN, RI 02835",4014230062,Land Ambulance,Ambulance,Transportation Services,41.496302248387,-71.370460367748
1538149026,"NATE WHIPPLE RADIOLOGY, INC.","175 NATE WHIPPLE HWY, CUMBERLAND, RI 02864",4016582440,Diagnostic Radiology Physician,Radiology,Allopathic & Osteopathic Physicians,41.978607864324,-71.442173727488
1841270303,"SOUTH COUNTY RADIATION THERAPY, LLC","142 KENYON AVE, WAKEFIELD, RI 02879",4012840850,Radiation Oncology Physician,Radiology,Allopathic & Osteopathic Physicians,41.432724626637,-71.497720079975
1891775128,"THE PROVIDENCE COMMUNITY HEALTH CENTERS, INC.","375 ALLENS AVE, PROVIDENCE, RI 02905",4014440400,Community/Behavioral Health Agency,Community/Behavioral Health,Agencies,41.802792617946,-71.401390543163
1134109697,"SOUTHERN NEW ENGLAND REGIONAL CANCER CENTER, LLC","115 CASS AVE STE 1, WOONSOCKET, RI 02895",4013561701,Radiation Oncology Physician,Radiology,Allopathic & Osteopathic Physicians,42.005241866766,-71.496283145402
1306816251,"SOUTH COUNTY PRIMARY CARE, INC.","360 KINGSTOWN RD UNIT 208, NARRAGANSETT, RI 02882",4017891086,Family Medicine Physician,Family Medicine,Allopathic & Osteopathic Physicians,41.434496370353,-71.479265440013
1548230097,"MILESTONE REHAB, L.L.C.","353 BLACKSTONE BLVD, PROVIDENCE, RI 02906",4017516900,Physical Therapist,Physical Therapist,"Respiratory, Developmental, Rehabilitative and Restorative Service Providers",41.844538742152,-71.386404866755
1497726517,LINCOLN RADIOLOGY,"2 WAKE ROBIN RD, LINCOLN, RI 02865",4013338090,Diagnostic Radiology Physician,Radiology,Allopathic & Osteopathic Physicians,41.934931200728,-71.474414736975
1710958830,NORTH SMITHFIELD RADIOLOGY,"63 EDDIE DOWLING HWY, NORTH SMITHFIELD, RI 02896",4013338090,Diagnostic Radiology Physician,Radiology,Allopathic & Osteopathic Physicians,41.981657018459,-71.514556668785
1578534863,"RONALD ROMANO, DO, INC","176 EDDIE DOWLING HWY, NORTH SMITHFIELD, RI 02896",4017664900,Internal Medicine Physician,Internal Medicine,Allopathic & Osteopathic Physicians,41.979868245706,-71.513227089655
1093786071,FRIENDLY HOME INC,"303 RHODES AVE, WOONSOCKET, RI 02895",4017697220,Skilled Nursing Facility,Skilled Nursing Facility,Nursing & Custodial Care Facilities,42.005692051668,-71.53337527488
1265403612,ANESTHESIA ASSOCIATES OF WESTERLY,"25 WELLS ST, WESTERLY, RI 02891",4015967477,Certified Registered Nurse Anesthetist,"Nurse Anesthetist, Certified Registered",Physician Assistants & Advanced Practice Nursing Providers,41.362830775057,-71.824787230143
1235101445,LAWRENCE P BOWEN MD INC,"235 PLAIN ST, SUITE 304, PROVIDENCE, RI 02905",4013314140,Plastic Surgery Within the Head and Neck (Plastic Surgery) Physician,Plastic Surgery,Allopathic & Osteopathic Physicians,41.809314330494,-71.410955963153
1639141310,CHILDREN FIRST PEDIATRICS INC,"6 BLACKSTONE VALLEY PL STE 500, LINCOLN, RI 02865",4013341200,Pediatrics Physician,Pediatrics,Allopathic & Osteopathic Physicians,41.9363852,-71.45553869999999
1588637524,TIOGUE FIRE DISTRICT,"240 ARNOLD RD, COVENTRY, RI 02816",4018284359,Ambulance,Ambulance,Transportation Services,41.674376330417,-71.554720406702
1275506230,"HAVEN HEALTH CENTER OF COVENTRY, LLC","10 WOODLAND DR, COVENTRY, RI 02816",4018262000,Skilled Nursing Facility,Skilled Nursing Facility,Nursing & Custodial Care Facilities,41.672774353006,-71.593543388478
1972576882,NATIONAL SEATING & MOBILITY INC,"2158 PLAINFIELD PIKE, UNIT #3, CRANSTON, RI 02921",4019468162,Durable Medical Equipment & Medical Supplies,Durable Medical Equipment & Medical Supplies,Suppliers,41.788357926192,-71.513740803235
1306810536,"OAKLAWN PHYSICAL THERAPY, INC.","800 OAKLAWN AVE, SUITE C-203, CRANSTON, RI 02920",4019464477,Physical Therapist,Physical Therapist,"Respiratory, Developmental, Rehabilitative and Restorative Service Providers",41.750560970688,-71.477761236676
1053386375,"WESTERLY RADIOLOGY ASSOCIATES, INC.","116 GRANITE ST, WESTERLY, RI 02891",4015965695,Diagnostic Radiology Physician,Radiology,Allopathic & Osteopathic Physicians,41.371817290988,-71.820289941865
1912973652,WARWICK URGENT CARE PARTNERS,"400 BALD HILL RD, SUITE 511, WARWICK, RI 02886",4017374420,Urgent Care Clinic/Center,Clinic/Center,Ambulatory Health Care Facilities,41.7262145,-71.47650159999999
1497721203,"BRENTWOOD HEALTH CENTER, LTD","4000 POST RD, WARWICK, RI 02886",4018848020,Skilled Nursing Facility,Skilled Nursing Facility,Nursing & Custodial Care Facilities,41.682454897631,-71.450767293913
1265408959,CITY OF WARWICK,"111 VETERANS MEMORIAL DR, WARWICK, RI 02886",4017382000,Ambulance,Ambulance,Transportation Services,41.701660701643,-71.458439709412
1881660579,WASHINGTON FIRE DISTRICT,"2 STATION ST, COVENTRY, RI 02816",4018224020,Ambulance,Ambulance,Transportation Services,41.692395766436,-71.564714511616
1942276571,"SUNNY VIEW NURSING HOME, INC","83 CORONA ST, WARWICK, RI 02886",4017379193,Skilled Nursing Facility,Skilled Nursing Facility,Nursing & Custodial Care Facilities,41.723221310414,-71.459111166451
1386610921,D HALPREN RUDER INC,"400 PUTNAM PIKE, SUITE E, SMITHFIELD, RI 02917",4012317001,Urgent Care Clinic/Center,Clinic/Center,Ambulatory Health Care Facilities,41.870077924448,-71.528132050566
1972579183,"MAXILLOFACIAL SURGEONS, LTD.","243 JEFFERSON BLVD, WARWICK, RI 02888",4017395500,Oral & Maxillofacial Surgery (D.M.D.),Oral & Maxillofacial Surgery,Allopathic & Osteopathic Physicians,41.739825846425,-71.439066418805
1144296054,"DAVID CARPENTIER, MD FAMILY HEALTHCARE LTD","495 ATWOOD AVE, CRANSTON, RI 02920",4019434540,Emergency Medicine Physician,Emergency Medicine,Allopathic & Osteopathic Physicians,41.788687327861,-71.472226913564
1396711347,OCEAN STATE EYE CARE,"1050 CENTERVILLE RD, WARWICK, RI 02886",4018283200,Optometrist,Optometrist,Eye and Vision Services Providers,41.69660968716,-71.498733248557
1083682355,WESTERN COVENTRY FIRE DISTRICT,"1110 VICTORY HWY, GREENE, RI 02827",4013977520,Ambulance,Ambulance,Transportation Services,41.697115997883,-71.693709035028
1134197411,TOWN OF WEST WARWICK RI,"1170 MAIN STREET, WEST WARWICK, RI 02893",4018228241,Land Ambulance,Ambulance,Transportation Services,41.708049072537,-71.522426012925
1043289077,"PAUL W. SANTORO, INC.","2138 MENDON RD, CUMBERLAND, RI 02864",4013055515,Internal Medicine Physician,Internal Medicine,Allopathic & Osteopathic Physicians,41.947176614607,-71.439287424538
1316915580,ALPINE NURSING HOME INC,"557 WEAVER HILL RD, COVENTRY, RI 02816",4013975001,Skilled Nursing Facility,Skilled Nursing Facility,Nursing & Custodial Care Facilities,41.6661551,-71.667706
1972572998,DR. DAVID W. FERRIS AND ASSOCIATES INC,"222 JEFFERSON BLVD, WARWICK, RI 02888",4017322350,Optometrist,Optometrist,Eye and Vision Services Providers,41.745626069496,-71.436804456073
1033188651,THE WESTERLY HOSPITAL,"25 WELLS ST, WESTERLY, RI 02891",4015966000,General Acute Care Hospital,General Acute Care Hospital,Hospitals,41.362830775057,-71.824787230143
1053370247,NORTHEAST MEDICAL EQUIPMENT INC,"31 WESTERN INDUSTRIAL DRIVE, CRANSTON, RI 02921",4019421805,Customized Equipment (DME),Durable Medical Equipment & Medical Supplies,Suppliers,41.783283324361,-71.518867244595
1225097330,OCEAN STATE REHAB EQUIPMENT INC,"197 PUTNAM PIKE, JOHNSTON, RI 02919",4012317100,Durable Medical Equipment & Medical Supplies,Durable Medical Equipment & Medical Supplies,Suppliers,41.866519088196,-71.501748943976
1356300115,RUTH'S LINGERIE INC,"106 ROLFE SQ, CRANSTON, RI 02910",4019415155,Durable Medical Equipment & Medical Supplies,Durable Medical Equipment & Medical Supplies,Suppliers,41.775648054376,-71.436771752029
1538128350,NHC NEW ENGLAND,"43 SMITH RD, BUILDING 43, ROOM 1063, NEWPORT, RI 02841",4018412157,Military/U.S. Coast Guard Outpatient Clinic/Center,Clinic/Center,Ambulatory Health Care Facilities,41.5045029,-71.321663
1598724007,"SOUTH COUNTY ARTIFICIAL LIMB CO., INC.","162 MAIN ST, WAKEFIELD, RI 02879",4017830063,Prosthetic/Orthotic Supplier,Prosthetic/Orthotic Supplier,Suppliers,41.440849983573,-71.494318684519
1619936028,DERMATOLOGY CARE SPECIALISTS INC,"647 JEFFERSON BLVD, WARWICK, RI 02886",4017398021,Dermatology Physician,Dermatology,Allopathic & Osteopathic Physicians,41.730422051783,-71.442493572864
1366402018,"DRS. CONCANNON AND VITALE, LLC","1145 RESERVOIR AVE, SUITE 124, CRANSTON, RI 02920",4019437337,Pediatrics Physician,Pediatrics,Allopathic & Osteopathic Physicians,41.770150510926,-71.454415212977
1437119005,"LINCOLN URGENT CARE CENTER, INC.","2 WAKE ROBIN RD, SUITE 106, LINCOLN, RI 02865",4013339595,Urgent Care Clinic/Center,Clinic/Center,Ambulatory Health Care Facilities,41.934931200728,-71.474414736975
1316907843,"LIFE CARE CENTERS OF AMERICA, INC","1 EVERGREEN DR, EAST PROVIDENCE, RI 02914",4014383250,Skilled Nursing Facility,Skilled Nursing Facility,Nursing & Custodial Care Facilities,41.807623833251,-71.344613429168
1417918871,"ULLUCCI SPORTS MEDICINE & PHYSICAL THERAPY, INC.","1235 WAMPANOAG TRL, EAST PROVIDENCE, RI 02915",4014331500,Physical Therapy Clinic/Center,Clinic/Center,Ambulatory Health Care Facilities,41.779287610356,-71.332612665146
1013978634,"PATRICK K. SULLIVAN, MD, LTD.","235 PLAIN ST, SUITE 502, PROVIDENCE, RI 02905",4018318300,Plastic Surgery Physician,Plastic Surgery,Allopathic & Osteopathic Physicians,41.809314330494,-71.410955963153
1649231135,HOMECARE NEW ENGLAND LLC,"45 INDUSTRIAL RD UNIT 102, CUMBERLAND, RI 02864",4013057000,Oxygen Equipment & Supplies (DME),Durable Medical Equipment & Medical Supplies,Suppliers,41.953097402296,-71.398088753334
1508828088,"FRANK A. DEQUATTRO, DMD","24 SALT POND RD, SUITE C1, WAKEFIELD, RI 02879",4017839890,Orthodontics and Dentofacial Orthopedics Dentistry,Dentist,Dental Providers,41.432196273941,-71.491724377741
1649232992,A FITTING EXPERIENCE,"266 WATERMAN ST, PROVIDENCE, RI 02906",4015213928,Prosthetic/Orthotic Supplier,Prosthetic/Orthotic Supplier,Suppliers,41.828174353829,-71.385695016576
1831151026,SELECT PHYSICAL THERPAY HOLDINGS INC,"215 TOLL GATE RD, STE 205, WARWICK, RI 02886",4017320999,Rehabilitation Clinic/Center,Clinic/Center,Ambulatory Health Care Facilities,41.700829399363,-71.469557696557
1033171798,NATIONAL SURGICAL SUPPLY COMPANY,"14 WOODRUFF AVE STE 13, NARRAGANSETT, RI 02882",4017831850,Oxygen Equipment & Supplies (DME),Durable Medical Equipment & Medical Supplies,Suppliers,41.430924606817,-71.481973568328
1447213731,VA MEDICAL CENTER,"830 CHALKSTONE AVE, PROVIDENCE, RI 02908",4012737100,General Acute Care Hospital,General Acute Care Hospital,Hospitals,41.833573066524,-71.435658411056
1700849593,EYE HEALTH VISION CENTER OF RHODE ISLAND,"73 VALLEY RD, MIDDLETOWN, RI 02842",4018410966,Optician,Technician/Technologist,Eye and Vision Services Providers,41.518264799154,-71.293014370856
1275596108,"LIFE CARE CENTERS OF AMERICA, INC.","2 CHERRY HILL RD, JOHNSTON, RI 02919",4012313102,Skilled Nursing Facility,Skilled Nursing Facility,Nursing & Custodial Care Facilities,41.836718904001,-71.482463592174
1982668539,"RHODE ISLAND FOOT & ANKLE, INC.","1591 CRANSTON ST, CRANSTON, RI 02920",4019469933,Foot & Ankle Surgery Podiatrist,Podiatrist,Podiatric Medicine & Surgery Service Providers,41.787113189973,-71.463635118827
1730143199,"HAVEN HEALTH CENTER OF WARREN, LLC","642 METACOM AVE, WARREN, RI 02885",4012452860,Skilled Nursing Facility,Skilled Nursing Facility,Nursing & Custodial Care Facilities,41.715982,-71.2668262
1518921816,"SOUTH COUNTY ORTHOPEDICS & PHYSICAL THERAPY, INC.","1 HIGH ST, WAKEFIELD, RI 02879",4017891422,Orthopaedic Surgery Physician,Orthopaedic Surgery,Allopathic & Osteopathic Physicians,41.436880591704,-71.501731219402
1992760672,"HAVEN HEALTH CENTER OF GREENVILLE, LLC","735 PUTNAM PIKE, GREENVILLE, RI 02828",4019491200,Skilled Nursing Facility,Skilled Nursing Facility,Nursing & Custodial Care Facilities,41.8812191,-71.5753091
1568427995,BAY TOWER NURSING CENTER,"101 PLAIN STREET, PROVIDENCE, RI 02903",4013514444,Nursing Facility/Intermediate Care Facility,Nursing Facility/Intermediate Care Facility,Nursing & Custodial Care Facilities,41.813750779664,-71.41255285135
1356306757,OAKLAND GROVE ASSOCIATES LP,"560 CUMBERLAND HILL RD, WOONSOCKET, RI 02895",4017690800,Skilled Nursing Facility,Skilled Nursing Facility,Nursing & Custodial Care Facilities,41.997448378924,-71.490181924155
1952366106,SOUTH COUNTY HOSPITAL HEALTHCARE SYSTEM,"100 KENYON AVE, WAKEFIELD, RI 02879",4017288000,General Acute Care Hospital,General Acute Care Hospital,Hospitals,41.432221904179,-71.496753221839
1437114436,SAINT ELIZABETH AT HOME CORP,"249 WICKENDEN ST, PROVIDENCE, RI 02903",4017519660,Home Health Registered Nurse,Registered Nurse,Nursing Service Providers,41.819431806828,-71.398119773415
1780649640,EMPIRE VISION CENTER INC,"45A NEWPORT AVE, VISION WORLD, RUMFORD, RI 02916",4014349870,Eyewear Supplier,Eyewear Supplier,Suppliers,41.85809593205,-71.354555769112
1083679906,EMPIRE VISION CENTER INC,"99 EAST MAIN ROAD, VISION WORLD, MIDDLETOWN, RI 02842",4018487400,Eyewear Supplier,Eyewear Supplier,Suppliers,41.517844882858,-71.296622605988
1548225550,EMPIRE VISION CENTER INC,"1875 MINERAL SPRING AVE, VISION WORLD, NORTH PROVIDENCE, RI 02904",4013533200,Eyewear Supplier,Eyewear Supplier,Suppliers,41.86078834146,-71.466305062529
1366407306,FLEXIBLE PHYSICAL THERAPY INC,"845 N MAIN ST, SUITE 1B, PROVIDENCE, RI 02904",4012701905,Clinic/Center,Clinic/Center,Ambulatory Health Care Facilities,41.843206187582,-71.407017531967
1134184005,EMPIRE VISION CENTER INC,"91 POINT JUDITH RD STE D8, VISION WORLD, NARRAGANSETT, RI 02882",4017822100,Eyewear Supplier,Eyewear Supplier,Suppliers,41.427913046462,-71.480864355078
1528024171,BLACKSTONE VALLEY SURGICARE ACQUISITION LP,"1526 ATWOOD AVE, SUITE 300, JOHNSTON, RI 02919",4014593800,Ambulatory Surgical Clinic/Center,Clinic/Center,Ambulatory Health Care Facilities,41.826887122091,-71.499947791958
1437115086,WAYLAND SQUARE SURGICARE ACQUISITION LP,"17 SEEKONK ST, PROVIDENCE, RI 02906",4014353311,Ambulatory Surgical Clinic/Center,Clinic/Center,Ambulatory Health Care Facilities,41.827799194915,-71.388057737602
1548226053,"WATCH HILL MANOR, LTD.","79 WATCH HILL RD, WESTERLY, RI 02891",4015962664,Skilled Nursing Facility,Skilled Nursing Facility,Nursing & Custodial Care Facilities,41.335211353412,-71.828119082209
1659338655,"BLACKSTONE VALLEY CENTER FOR INTERNAL MEDICINE, INC","191 SOCIAL ST, SUITE 840, WOONSOCKET, RI 02895",4017622535,Primary Care Clinic/Center,Clinic/Center,Ambulatory Health Care Facilities,42.007433441695,-71.509561878704
1356308027,"BRISTOL NEUROLOGY, INC","448 HOPE ST, BRISTOL, RI 02809",4012546044,Neurology Physician,Psychiatry & Neurology,Allopathic & Osteopathic Physicians,41.670059453404,-71.276347619159
1821055567,FAINE SC,"400 BALD HILL ROAD, SUITE 503, WARWICK, RI 02886",4017387750,Clinic/Center,Clinic/Center,Ambulatory Health Care Facilities,41.7269111,-71.4792824
1154388858,EMPIRE VISION CENTER INC,"1400 OAKLAWN AVENUE, CRANSTON, RI 02920",4014636696,Eyewear Supplier,Eyewear Supplier,Suppliers,41.732756011097,-71.477122840071
1831156397,NEWPORT ANESTHESIA PARTNERS LLC,"11 FRIENDSHIP ST, NEWPORT, RI 02840",4012534063,Anesthesiology Physician,Anesthesiology,Allopathic & Osteopathic Physicians,41.497621987067,-71.305999997157
1205894532,MATRIX SPORTS MEDICINE & PHYSICAL THERAPY INC,"233 EDDIE DOWLING HWY, NORTH SMITHFIELD, RI 02896",4014741293,Specialist,Specialist,Other Service Providers,41.9772363901,-71.512087994231
1548228794,"SOUTHERN NEW ENGLAND RETINA ASSOCIATES, PC","1 RANDALL SQ, SUITE 203, PROVIDENCE, RI 02904",4014534600,Ophthalmology Physician,Ophthalmology,Allopathic & Osteopathic Physicians,41.836957094036,-71.411034435577
1285692731,EAST BAY ORAL SURGERY,"2224 PAWTUCKET AVENUE, EAST PROVIDENCE, RI 02914",4014354240,Oral and Maxillofacial Surgery (Dentist),Dentist,Dental Providers,41.815213544045,-71.357335834911
1043278229,GENOA HEALTHCARE LLC,"530 N MAIN ST STE 6, PROVIDENCE, RI 02904",4012766370,Durable Medical Equipment & Medical Supplies,Durable Medical Equipment & Medical Supplies,Suppliers,41.835799386383,-71.410104186146
1619935145,PROVIDENCE VAMC,"830 CHALKSTONE AVE, PROVIDENCE, RI 02908",4012737100,Department of Veterans Affairs (VA) Pharmacy,Department of Veterans Affairs (VA) Pharmacy,Suppliers,41.833573066524,-71.435658411056
1538117577,JAMES G FINGLETON MD,"208 COLLYER ST, PROVIDENCE, RI 02904",4014214200,Thoracic Surgery (Cardiothoracic Vascular Surgery) Physician,Thoracic Surgery (Cardiothoracic Vascular Surgery),Allopathic & Osteopathic Physicians,41.855528581366,-71.402937316835
1821047143,OPTOMETRIC CARE INC,"401 WEST MAIN ROAD, MIDDLETOWN, RI 02842",4018487400,Optometrist,Optometrist,Eye and Vision Services Providers,41.51590770177,-71.300880700374
1023067337,OPTOMETRIC CARE INC,"553 KINGSTOWN ROAD, WAKEFIELD, RI 02879",4017822100,Optometrist,Optometrist,Eye and Vision Services Providers,41.43970905084,-71.487175771646
1063461382,OPTOMETRIC CARE INC,"1875 MINERAL SPRING AVE, NORTH PROVIDENCE, RI 02904",4013533200,Optometrist,Optometrist,Eye and Vision Services Providers,41.86078834146,-71.466305062529
1619926920,OPTOMETRIC CARE INC,"1925 PAWTUCKET AVE, EAST PROVIDENCE, RI 02914",4014349870,Optometrist,Optometrist,Eye and Vision Services Providers,41.82334985903,-71.355140978311
1427007731,OPTOMETRIC CARE INC,"1400 OAKLAWN AVE, CRANSTON, RI 02920",4014636696,Optometrist,Optometrist,Eye and Vision Services Providers,41.732756011097,-71.477122840071
1841249935,"RHODE ISLAND HAND CENTER, P.C.","1150 RESERVOIR AVENUE, CRANSTON, RI 02920",4019420280,Hand Physical Therapist,Physical Therapist,"Respiratory, Developmental, Rehabilitative and Restorative Service Providers",41.770368098286,-71.454017960648
1396794996,RALPH A DIGIACOMO MD PC,"215 TOLL GATE ROAD, SUITE 303, WARWICK, RI 02886",4017381576,Rheumatology Physician,Internal Medicine,Allopathic & Osteopathic Physicians,41.700829399363,-71.469557696557
1194774943,GENESIS ELDER CARE PHYSICIAN SERVICES LLC,"660 COMMONWEALTH AVENUE, WARWICK, RI 02886",4017394241,Gerontology Nurse Practitioner,Nurse Practitioner,Physician Assistants & Advanced Practice Nursing Providers,41.701436315083,-71.479450663511
1316996101,"UNIVERSITY DERMATOLOGY, INC.","593 EDDY ST, APC#10, PROVIDENCE, RI 02903",4014447959,Dermatology Physician,Dermatology,Allopathic & Osteopathic Physicians,41.810923220052,-71.407246567906
1306896733,PROVIDENCE VAMC,"830 CHALKSTONE AVE, PROVIDENCE, RI 02908",7172776565,General Acute Care Hospital,General Acute Care Hospital,Hospitals,41.833573066524,-71.435658411056
1306896311,"RHODE ISLAND REHABILITATION INSTITUTE P.C,","721 RESERVOIR AVE, CRANSTON, RI 02910",4019464250,Registered Dietitian,"Dietitian, Registered",Dietary & Nutritional Service Providers,41.779872351595,-71.443136245579
1871543868,EYE-SHOP INC,"1524 ATWOOD AVE, SUITE 240, JOHNSTON, RI 02919",4013516450,Eyewear Supplier,Eyewear Supplier,Suppliers,41.826806293832,-71.499927322472
1164472718,"KENT EMERGENCY PHYSICIANS, INC.","455 TOLL GATE RD, WARWICK, RI 02886",4017377000,Emergency Medicine Physician,Emergency Medicine,Allopathic & Osteopathic Physicians,41.704628145854,-71.478101034213
1811949068,"NANCY ANN NURSING HOME, INC.","47 E KILLINGLY RD, FOSTER, RI 02825",4016472170,Skilled Nursing Facility,Skilled Nursing Facility,Nursing & Custodial Care Facilities,41.82595021867,-71.738573016464
1457302002,ENCOMPASS CARE COMPANY INC,"6 BLACKSTONE VALLEY PL STE 301, LINCOLN, RI 02865",5087692707,Mental Health Counselor,Counselor,Behavioral Health & Social Service Providers,41.9363724,-71.4571436
1265484810,"ENDOSCOPY ASSOCIATES, LLC","44 W RIVER ST, FIRST FLOOR, PROVIDENCE, RI 02904",4012744800,Endoscopy Clinic/Center,Clinic/Center,Ambulatory Health Care Facilities,41.840198463564,-71.416083749546
1992757017,"NORTH PROVIDENCE MEDICAL SERVICES, INC","1637 MINERAL SPRING AVE, SUITE 115, NORTH PROVIDENCE, RI 02904",4013531012,Urgent Care Clinic/Center,Clinic/Center,Ambulatory Health Care Facilities,41.863921641974,-71.450599065939
1396797460,"LIFEWORKS, INC","10 ELMGROVE AVE, PROVIDENCE, RI 02906",4016324045,Clinical Social Worker,Social Worker,Behavioral Health & Social Service Providers,41.830168409677,-71.389494447689
1548212525,MT SAINT FRANCIS ASSOCIATES,"4 SAINT JOSEPH ST, WOONSOCKET, RI 02895",4017655844,Skilled Nursing Facility,Skilled Nursing Facility,Nursing & Custodial Care Facilities,41.996950678139,-71.505651323593
1689626764,BROWN MEDICINE,"375 WAMPANOAG TRL, RIVERSIDE, RI 02915",4016494010,Acupuncturist,Acupuncturist,Other Service Providers,41.795548541332,-71.352146900398
1801848908,"MINERAL SPRING PRIMARY CARE ASSOCIATES, LLC","1637 MINERAL SPRING AVE, SUITE 111, NORTH PROVIDENCE, RI 02904",4013535224,Internal Medicine Physician,Internal Medicine,Allopathic & Osteopathic Physicians,41.863921641974,-71.450599065939
1235181041,"UNIVERSITY ORTHOPEDICS, INC.","2 DUDLEY ST, SUITE 200, PROVIDENCE, RI 02905",4014572158,Orthopaedic Surgery Physician,Orthopaedic Surgery,Allopathic & Osteopathic Physicians,41.810745913892,-71.407240834819
1649223744,SOUTH COUNTY PHYSICIANS AND SURGEONS INC - OPTICAL SHOPE,"65 BOSTON NECK ROAD, SOUTH COUNTY EYE PHYSICIANS AND SURGEONS INC, NORTH KINGSTOWN, RI 02852",4012950723,Eyewear Supplier,Eyewear Supplier,Suppliers,41.566882776368,-71.450363586904
1588617609,"LEPRE PHYSICAL THERAPY OF NORTH PROVIDENCE, LLC","1525 SMITH ST, UNIT #5, NORTH PROVIDENCE, RI 02911",4017853334,Physical Therapist,Physical Therapist,"Respiratory, Developmental, Rehabilitative and Restorative Service Providers",41.850302787209,-71.461778740601
1356394407,"SOUTHERN NEW ENGLAND ANESTHESIA AND PAIN ASSOCIATES, INC","102 SMITHFIELD AVE, PAWTUCKET, RI 02860",4017294985,Interventional Pain Medicine Physician,Pain Medicine,Allopathic & Osteopathic Physicians,41.861159427193,-71.411588593929
1235182783,WELLCARE INC,"1524 ATWOOD AVE, SUITE 243, JOHNSTON, RI 02919",4012728773,Women's Health Nurse Practitioner,Nurse Practitioner,Physician Assistants & Advanced Practice Nursing Providers,41.826806293832,-71.499927322472
1962455022,BROWN EMERGENCY MEDICINE,"593 EDDY ST, CLAVERICK 2, PROVIDENCE, RI 02903",4014444000,Pediatric Emergency Medicine (Emergency Medicine) Physician,Emergency Medicine,Allopathic & Osteopathic Physicians,41.810923220052,-71.407246567906
1326091711,CRANSTON MRI PC,"1076 N MAIN ST, PROVIDENCE, RI 02904",4014215191,Diagnostic Radiology Physician,Radiology,Allopathic & Osteopathic Physicians,41.850784202522,-71.402790252188
1174576342,"THE PROVIDENCE COMMUNITY HEALTH CENTERS, INC.","1 WARREN WAY, PROVIDENCE, RI 02905",4014440530,Federally Qualified Health Center (FQHC),Clinic/Center,Ambulatory Health Care Facilities,41.80249999999999,-71.4022849
1760435093,ANESTHESIA ASSOCIATES OF KENT COUNTY,"455 TOLL GATE RD, WARWICK, RI 02886",4017381516,Interventional Pain Medicine Physician,Pain Medicine,Allopathic & Osteopathic Physicians,41.704628145854,-71.478101034213
1881647238,"NORTHWESTERN RI IMAGING CENTER, LLC","1526 ATWOOD AVE, JOHNSTON, RI 02919",4013310900,Diagnostic Radiology Physician,Radiology,Allopathic & Osteopathic Physicians,41.826887122091,-71.499947791958
1538113113,"RHODE ISLAND PET SERVICES, LLC","100 KENYON AVE, WAKEFIELD, RI 02879",4013122454,Mobile Radiology Clinic/Center,Clinic/Center,Ambulatory Health Care Facilities,41.432221904179,-71.496753221839
1861445728,"NARRAGANSETT BAY ANESTHESIA, LLC","455 TOLL GATE RD, WARWICK, RI 02886",7819150214,Interventional Pain Medicine Physician,Pain Medicine,Allopathic & Osteopathic Physicians,41.704628145854,-71.478101034213
1053365734,"OPEN MRI OF NEW ENGLAND, INC.","525 BROAD ST, CUMBERLAND, RI 02864",4017256736,Diagnostic Radiology Physician,Radiology,Allopathic & Osteopathic Physicians,41.914008614376,-71.398065129671
1780638494,"ADVANCED RADIOLOGY, INC.","525 BROAD ST, CUMBERLAND, RI 02864",4017274600,Diagnostic Radiology Physician,Radiology,Allopathic & Osteopathic Physicians,41.914008614376,-71.398065129671
1306890546,"PLAZA PSYCHOLOGY & PSYCHIATRY, INC.","191 SOCIAL ST STE 180, WOONSOCKET, RI 02895",4013561940,Mental Health Counselor,Counselor,Behavioral Health & Social Service Providers,42.007433441695,-71.509561878704
1477507663,ASHAWAY AMBULANCE ASSOCIATION INC,"72 HIGH ST, ASHAWAY, RI 02804",4013778312,Ambulance,Ambulance,Transportation Services,41.430922059717,-71.79138098909
1770537854,"TENDER LOVING CARE HEALTH CARE SERVICES OF NEW ENGLAND, LLC","300 CENTERVILLE RD, SUITE 202, WARWICK, RI 02886",4017374236,Home Health Agency,Home Health,Agencies,41.6946165,-71.4715929
1467406447,EDWARD P ANDERSEN MD LTD,"283 POND ST, WOONSOCKET, RI 02895",4017696323,Orthopaedic Surgery Physician,Orthopaedic Surgery,Allopathic & Osteopathic Physicians,42.009164432418,-71.511492494108
1104871003,"SILVER SPRING HEALTH CARE MANAGEMENT, INC","100 KENYON AVE, WAKEFIELD, RI 02879",4017881430,Clinical Social Worker,Social Worker,Behavioral Health & Social Service Providers,41.432221904179,-71.496753221839
1538114277,DIGITRACE CARE SERVICES INC,"227 CENTERVILLE RD, WARWICK, RI 02886",4012745716,Sleep Disorder Diagnostic Clinic/Center,Clinic/Center,Ambulatory Health Care Facilities,41.698018470065,-71.468523381194
1790730547,"ORTHOPEDIC & SPORTS PHYSICAL THERAPY , INC","16 ARNOLD ST, WOONSOCKET, RI 02895",4017652030,Physical Therapist,Physical Therapist,"Respiratory, Developmental, Rehabilitative and Restorative Service Providers",42.000643379393,-71.516548932068
1093760498,"COMPREHENSIVE OB/GYN CARE, INC","725 RESERVOIR AVE, CRANSTON, RI 02910",4019464022,Obstetrics & Gynecology Physician,Obstetrics & Gynecology,Allopathic & Osteopathic Physicians,41.779773246725,-71.443272694269
1457306151,SOUTH COUNTY EYE PHYSICIANS AND SURGEONS INC,"65 BOSTON NECK ROAD, NORTH KINGSTOWN, RI 02852",4012944506,Ophthalmology Physician,Ophthalmology,Allopathic & Osteopathic Physicians,41.566882776368,-71.450363586904
1255386868,"PROVIDENCE UROLOGY, LLC","1165 N MAIN ST, SUITE 200, PROVIDENCE, RI 02904",4015214333,Urology Physician,Urology,Allopathic & Osteopathic Physicians,41.852168372265,-71.401666353562
1578518718,"SPECIALIZED ORTHOPEDIC PHYSICAL THERAPY, INC","250A CENTERVILLE ROAD, WARWICK, RI 02886",4013846490,Physical Therapist,Physical Therapist,"Respiratory, Developmental, Rehabilitative and Restorative Service Providers",41.697683007051,-71.470455568378
1013963016,SHAWS SUPERMARKETS INC,"1485 HARTFORD AVE, JOHNSTON, RI 02919",4012722503,Pharmacy,Pharmacy,Suppliers,41.824823838125,-71.502906343364
1922054923,SHAWS SUPERMARKETS INC,"100 FRANKLIN ST, WESTERLY, RI 02891",4013488323,Pharmacy,Pharmacy,Suppliers,41.361447137426,-71.812184367894
1831145838,SHAWS SUPERMARKETS INC,"15 SMITHFIELD RD, NORTH PROVIDENCE, RI 02904",4013534075,Durable Medical Equipment & Medical Supplies,Durable Medical Equipment & Medical Supplies,Suppliers,41.85480646947,-71.447107870929
1740236744,SHAWS SUPERMARKETS INC,"320 WARWICK AVE, WARWICK, RI 02888",4017853987,Pharmacy,Pharmacy,Suppliers,41.767122871138,-71.405087500187
1477509479,SHAWS SUPERMARKETS INC,"8 CHAPEL VIEW BLVD, CRANSTON, RI 02905",4014649181,Pharmacy,Pharmacy,Suppliers,41.756079440812,-71.461403960863
1386690394,WOMEN'S INTERNAL MEDICINE INC.,"1672 S COUNTY TRL, SUITE 303, EAST GREENWICH, RI 02818",4018840020,Internal Medicine Physician,Internal Medicine,Allopathic & Osteopathic Physicians,41.648888039028,-71.496056395545
1811943558,HEALY PHYSICAL THERAPY AND SPORTS MEDICINE INC,"927B WARREN AVE, EAST PROVIDENCE, RI 02914",4014380905,Physical Therapist,Physical Therapist,"Respiratory, Developmental, Rehabilitative and Restorative Service Providers",41.808629774086,-71.349472984351
1013963891,ANESTHESIA ASSOCIATES OF KENT COUNTY,"400 BALD HILL RD, SUITE 503, WARWICK, RI 02886",4017387750,Anesthesiology Physician,Anesthesiology,Allopathic & Osteopathic Physicians,41.7269111,-71.4792824
1346296209,VISION ASSOCIATES INC,"12 SMITH AVE, GREENVILLE, RI 02828",4019491616,Optometrist,Optometrist,Eye and Vision Services Providers,41.870336814323,-71.553344845365
1669428348,"EAST BAY CENTER, INC.","2 OLD COUNTY RD, BARRINGTON, RI 02806",4014378844,Mental Health Clinic/Center (Including Community Mental Health Center),Clinic/Center,Ambulatory Health Care Facilities,41.755002819463,-71.32684619221
1760438329,DSI RENAL INC,"40 HEMINGWAY DR, EAST PROVIDENCE, RI 02915",4014385930,End-Stage Renal Disease (ESRD) Treatment Clinic/Center,Clinic/Center,Ambulatory Health Care Facilities,41.79758868958,-71.34855777811
1235185679,"ASSOCIATES IN ANESTHESIA, INC.","200 HIGH SERVICE AVE, NORTH PROVIDENCE, RI 02904",4014563136,Interventional Pain Medicine Physician,Pain Medicine,Allopathic & Osteopathic Physicians,41.856687901371,-71.460663233926
1174579619,ISD RENAL INC,"1635 MINERAL SPRING AVE, NORTH PROVIDENCE, RI 02904",4013545340,End-Stage Renal Disease (ESRD) Treatment Clinic/Center,Clinic/Center,Ambulatory Health Care Facilities,41.863936981929,-71.450537241273
1568418606,HEALTH RESOURCES OF CUMBERLAND INC,"100 CHAMBERS ST, CUMBERLAND, RI 02864",4017247500,Skilled Nursing Facility,Skilled Nursing Facility,Nursing & Custodial Care Facilities,41.906944256802,-71.396812718497
1043266232,APPLE VALLEY FAMILY TREATMENT CENTER,"466 PUTNAM PIKE, GREENVILLE, RI 02828",4019492010,Internal Medicine Physician,Internal Medicine,Allopathic & Osteopathic Physicians,41.870094139948,-71.537956838642
1780630293,SHAWS SUPERMARKETS INC,"160 OLD TOWER HILL RD, WAKEFIELD, RI 02879",4017831475,Pharmacy,Pharmacy,Suppliers,41.442236354571,-71.482930723955
1598711004,SHAWS SUPERMARKETS INC,"1925 PAWTUCKET AVE, WAMPANOAG MALL, EAST PROVIDENCE, RI 02914",4014354950,Pharmacy,Pharmacy,Suppliers,41.82334985903,-71.355140978311
1427004886,RHODE ISLAND DERMATOLOGY AND LASER MEDICINE,"845 N MAIN ST, SUITE 3, PROVIDENCE, RI 02904",4015217300,Dermatology Physician,Dermatology,Allopathic & Osteopathic Physicians,41.843206187582,-71.407017531967
1710933072,WELLNESS COMPANY INC,"132A GEORGE M COHAN BLVD, PROVIDENCE, RI 02903",4014610662,Corporate Health Clinic/Center,Clinic/Center,Ambulatory Health Care Facilities,41.818758930753,-71.396187420371
1568419372,HEALTH RESOURCES OF MIDDLETOWN R I INC,"333 GREEN END AVE, MIDDLETOWN, RI 02842",4018497100,Skilled Nursing Facility,Skilled Nursing Facility,Nursing & Custodial Care Facilities,41.506533592018,-71.286317760465
1417904988,"ALEXANDER SCAGNELLI, M.D.,P.C.","469 CENTERVILLE RD STE 103, WARWICK, RI 02886",4018214100,Child & Adolescent Psychiatry Physician,Psychiatry & Neurology,Allopathic & Osteopathic Physicians,41.697521870123,-71.478852154725
1801843388,PSYCHOLOGICAL ASSOCIATES,"889 CENTERVILLE RD, WARWICK, RI 02886",4018214100,Psychologist,Psychologist,Behavioral Health & Social Service Providers,41.696925556583,-71.493196606904
1033166657,NORTHERN RI PHYSICAL THERAPY,"1 GARNETT LN, SUITE 3, GREENVILLE, RI 02828",4019490380,Physical Therapist,Physical Therapist,"Respiratory, Developmental, Rehabilitative and Restorative Service Providers",41.873447419841,-71.557590151804
1386691723,MJI INC,"215 TOLL GATE RD, WARWICK, RI 02886",4017399050,Orthopaedic Surgery Physician,Orthopaedic Surgery,Allopathic & Osteopathic Physicians,41.700829399363,-71.469557696557
1548217805,SPURWINK RI,"1 SPURWINK PL, CRANSTON, RI 02910",4017814380,Intellectual and/or Developmental Disabilities Community Based Residential Treatment Facility,"Community Based Residential Treatment Facility, Intellectual and/or Developmental Disabilities",Residential Treatment Facilities,41.7789104,-71.4335723
1396792503,ALLENS HEALTH CENTRE INC,"2115 S COUNTY TRL, WEST KINGSTON, RI 02892",4017838568,Skilled Nursing Facility,Skilled Nursing Facility,Nursing & Custodial Care Facilities,41.501410281104,-71.562505194353
1831136050,PROVIDENCE VAMC,"1 CORPORATE PL, MIDDLETOWN, RI 02842",7172776565,VA Clinic/Center,Clinic/Center,Ambulatory Health Care Facilities,41.529933203445,-71.296131292192
1215974365,ROGER WILLIAMS HOSPITAL,"825 CHALKSTONE AVE, PROVIDENCE, RI 02908",4014562677,Specialist,Specialist,Other Service Providers,41.834046106806,-71.434322525691
1861439705,EAST BAY COMMUNITY ACTION PROGRAM,"19 BROADWAY, NEWPORT, RI 02840",4018486697,Federally Qualified Health Center (FQHC),Clinic/Center,Ambulatory Health Care Facilities,41.490980511081,-71.312543732154
1770520462,THE MIRIAM HOSPITAL,"164 SUMMIT AVE, PROVIDENCE, RI 02906",4017932500,Critical Care Medicine (Anesthesiology) Physician,Anesthesiology,Allopathic & Osteopathic Physicians,41.851210394131,-71.397910198872
1043258932,"HARRIS HEALTH CENTER, LLC","833 BROADWAY, EAST PROVIDENCE, RI 02914",4014347404,Skilled Nursing Facility,Skilled Nursing Facility,Nursing & Custodial Care Facilities,41.817716441855,-71.369109115732
1417995101,LONARDO OPTICIANS,"1543 SMITH ST, N PROVIDENCE, RI 02911",4013532010,Durable Medical Equipment & Medical Supplies,Durable Medical Equipment & Medical Supplies,Suppliers,41.850582997477,-71.462415448979
1962440545,PARTNERS IN OBSTETRICS AND GYNECOLOGY,"333 SCHOOL ST, SUITE 205, PAWTUCKET, RI 02860",4017240600,Obstetrics & Gynecology Physician,Obstetrics & Gynecology,Allopathic & Osteopathic Physicians,41.87201130275,-71.380632841157
1205874930,RHODE ISLAND MEDICAL IMAGING INC,"125 METRO CENTER BLVD STE 2000, WARWICK, RI 02886",4014322500,Diagnostic Radiology Physician,Radiology,Allopathic & Osteopathic Physicians,41.724534343809,-71.45611406438
1518906965,EAST SIDE ENDODONTICS,"130 WATERMAN ST, PROVIDENCE, RI 02906",4015213746,Endodontics,Dentist,Dental Providers,41.827580538185,-71.397918627634
1912946898,"BAYADA HOME HEALTH CARE, INC.","171 SERVICE AVE STE 101&102, WARWICK, RI 02886",4013302525,Nursing Care Agency,Nursing Care,Agencies,41.73736993144,-71.447336112194
1194764019,"EMERGENCY MEDICINE PHYSICIANS OF PROVIDENCE COUNTY, LLC","825 CHALKSTONE AVE, PROVIDENCE, RI 02908",3304934443,Emergency Medicine Physician,Emergency Medicine,Allopathic & Osteopathic Physicians,41.834046106806,-71.434322525691
1104865849,CHAN PARK MD INC,"905 VICTORY HIGHWAY, SLATERSVILLE, RI 02876",4017622728,Family Medicine Physician,Family Medicine,Allopathic & Osteopathic Physicians,42.00574,-71.58700379999999
1518907302,SPECTRUM FAMILY HEALTH INC,"541 NEWPORT AVE, PAWTUCKET, RI 02861",4014754588,Family Medicine Physician,Family Medicine,Allopathic & Osteopathic Physicians,41.871706013195,-71.354271967694
1164462818,GRACE BARKER NURSING CENTER INC.,"54 BARKER AVE, WARREN, RI 02885",4012459100,Skilled Nursing Facility,Skilled Nursing Facility,Nursing & Custodial Care Facilities,41.727326033362,-71.264276003438
1194766402,LAURA S NEVEL MD INC,"725 RESERVOIR AVE, SUITE 100, CRANSTON, RI 02910",4012722562,Gynecology Physician,Obstetrics & Gynecology,Allopathic & Osteopathic Physicians,41.779773246725,-71.443272694269
1174564546,RHODE ISLAND INTEGRATED MEDICINE,"521 PARK AVE, CRANSTON, RI 02910",4017813374,Neurology Chiropractor,Chiropractor,Chiropractic Providers,41.776096751058,-71.420103826377
1134160559,AQUIDNECK AESTHETIC DENTISTRY INC.,"460 E MAIN RD, MIDDLETOWN, RI 02842",4018493008,General Practice Dentistry,Dentist,Dental Providers,41.521275715867,-71.285094270294
1528009313,RHODE ISLAND EMERGENCY PHYSICIANS,"100 KENYON AVE, WAKEFIELD, RI 02879",4017828010,Emergency Medicine Physician,Emergency Medicine,Allopathic & Osteopathic Physicians,41.432221904179,-71.496753221839
1306887237,BELANGER CHIROPRACTIC LLC,"24 SALT POND RD STE C5, WAKEFIELD, RI 02879",4017895008,Chiropractor,Chiropractor,Chiropractic Providers,41.432196273941,-71.491724377741
1073554812,BURRILLVILLE HEALTH CENTER,"181 DAVIS DR, PASCOAG, RI 02859",4015680600,Nursing Facility/Intermediate Care Facility,Nursing Facility/Intermediate Care Facility,Nursing & Custodial Care Facilities,41.936531802595,-71.683505829109
1447292990,DIALYSIS CENTER OF WAKEFIELD LLC,"10 HIGH ST, SUITE C, WAKEFIELD, RI 02879",4017923450,End-Stage Renal Disease (ESRD) Treatment Clinic/Center,Clinic/Center,Ambulatory Health Care Facilities,41.437036343539,-71.501995261876
1669414249,MEDIOXX,"6 BLACKSTONE VALLEY PL, STE 705 BLDG 7, LINCOLN, RI 02865",8776334699,Oxygen Equipment & Supplies (DME),Durable Medical Equipment & Medical Supplies,Suppliers,41.9363852,-71.45553869999999
1609818210,THE PROVIDENCE CENTER,"90 PLAIN ST, PROVIDENCE, RI 02903",4015280050,Emotionally Disturbed Childrens' Residential Treatment Facility,"Residential Treatment Facility, Emotionally Disturbed Children",Residential Treatment Facilities,41.813890482847,-71.412442660336
1972545481,ATTLEBORO CUMBERLAND ORAL SURGEONS INC,"3353 MENDON RD, CUMBERLAND, RI 02864",4016582224,Oral and Maxillofacial Surgery (Dentist),Dentist,Dental Providers,41.977241103894,-71.458984135879
1437191061,COMMUNITY CARE ALLIANCE,"800 CLINTON ST, WOONSOCKET, RI 02895",4012357000,Case Management Agency,Case Management,Agencies,42.00761222094,-71.504231470441
1275575748,"THOMAS R. LEDDY, M.D.,LLC","390 TOLL GATE RD, WARWICK, RI 02886",4017322662,Ophthalmology Physician,Ophthalmology,Allopathic & Osteopathic Physicians,41.703240494654,-71.475697462982
1033151519,VILLAGE HOUSE CONVALESCENT HOME INC,"70 HARRISON AVE, NEWPORT, RI 02840",4018495222,Nursing Facility/Intermediate Care Facility,Nursing Facility/Intermediate Care Facility,Nursing & Custodial Care Facilities,41.471357442996,-71.323056444242
1033151345,RYAN HEALTH CENTER INC,"80 MORGAN AVE, JOHNSTON, RI 02919",4019447800,Skilled Nursing Facility,Skilled Nursing Facility,Nursing & Custodial Care Facilities,41.802227134016,-71.474623498051
1396787636,"LASALLE PHARMACY,INC","113 PUTNAM PIKE, JOHNSTON, RI 02919",4012321194,Pharmacist,Pharmacist,Pharmacy Service Providers,41.86330326056,-71.494719600438
1629010988,"CHAD E. LAMENDOLA, M.D., LTD.","925 MAIN ST, EAST GREENWICH, RI 02818",4018845333,Family Medicine Physician,Family Medicine,Allopathic & Osteopathic Physicians,41.651903101979,-71.456620613676
1699717959,ELMWOOD HEALTH CENTER INC,"225 ELMWOOD AVE, PROVIDENCE, RI 02907",4012720600,Nursing Facility/Intermediate Care Facility,Nursing Facility/Intermediate Care Facility,Nursing & Custodial Care Facilities,41.806729394744,-71.424993838892
1780626556,ELEANOR SLATER HOSPITAL ZAMBARANO UNIT,"2090 WALLUM LAKE RD, PASCOAG, RI 02859",4014623077,Pharmacy,Pharmacy,Suppliers,41.997682705369,-71.759584690718
1558304212,"BRAIN & SPINE NEUROSURGICAL INSTITUTE, LLC","1526 ATWOOD AVENUE, SUITE 200, JOHNSTON, RI 02919",4012705395,Psychologist,Psychologist,Behavioral Health & Social Service Providers,41.826887122091,-71.499947791958
1366486102,BROWN NEUROLOGY,"593 EDDY STREET, APC 5, PROVIDENCE, RI 02903",4014443032,Neurology Physician,Psychiatry & Neurology,Allopathic & Osteopathic Physicians,41.810923220052,-71.407246567906
1447294293,"HEALTH RESOURCES OF WARWICK, INC","660 COMMONWEALTH AVE, WARWICK, RI 02886",4017394241,Skilled Nursing Facility,Skilled Nursing Facility,Nursing & Custodial Care Facilities,41.701436315083,-71.479450663511
1457395998,ROGER WILLIAMS MEDICAL CENTER,"825 CHALKSTONE AVE, PROVIDENCE, RI 02908",4014562363,Addiction (Substance Use Disorder) Psychologist,Psychologist,Behavioral Health & Social Service Providers,41.834046106806,-71.434322525691
1114961729,ROGER WILLIAMS MEDICAL CENTER,"50 MAUDE ST, PROVIDENCE, RI 02908",4014562273,Home Health Agency,Home Health,Agencies,41.837315343135,-71.433772617668
1689618902,NEW ENGLAND AMBULANCE SERVICE INC.,"37 MANUEL AVE, JOHNSTON, RI 02919",4014211859,Land Ambulance,Ambulance,Transportation Services,41.830049183234,-71.475121994523
1578507943,"NEW ENGLAND ORTHOPEDICS, INC","220 TOLL GATE RD, WARWICK, RI 02886",4017399838,Prosthetic/Orthotic Supplier,Prosthetic/Orthotic Supplier,Suppliers,41.700950015534,-71.47032610836
1386689149,WARWICK HEALTH CENTRE INC.,"109 W SHORE RD, WARWICK, RI 02889",4017399440,Skilled Nursing Facility,Skilled Nursing Facility,Nursing & Custodial Care Facilities,41.733183710465,-71.40258865087
1588609234,DIALYSIS CENTER OF WESTERLY LLC,"1 RHODY DR, WESTERLY, RI 02891",4015960368,End-Stage Renal Disease (ESRD) Treatment Clinic/Center,Clinic/Center,Ambulatory Health Care Facilities,41.361381349604,-71.823731418092
1316982820,"ARSHAD IQBAL, MD. INC","4519 POST RD, EAST GREENWICH, RI 02818",4018867866,Neurology Physician,Psychiatry & Neurology,Allopathic & Osteopathic Physicians,41.667040959347,-71.449757980378
1659316222,HUMAYUN GAZDER,"100 KENYON AVE, WAKEFIELD, RI 02879",4017828000,Anesthesiology Physician,Anesthesiology,Allopathic & Osteopathic Physicians,41.432221904179,-71.496753221839
1396780086,TRI-COUNTY COMMUNITY ACTION AGENCY,"1126 HARTFORD AVE, JOHNSTON, RI 02919",4013512750,Community/Behavioral Health Agency,Community/Behavioral Health,Agencies,41.822284746595,-71.486237548245
1629013149,BROWN UNIVERSITY OF PROVEDENCE STATE OF RI AND PROV PLANTAIO,"450 BROOK STREET, PROVIDENCE, RI 02912",4018637882,Community/Retail Pharmacy,Pharmacy,Suppliers,41.830047538704,-71.399781379429
1225073638,THE MIRIAM HOSPITAL,"146 W RIVER ST STE 11A, PROVIDENCE, RI 02904",4017938770,Neurology Physician,Psychiatry & Neurology,Allopathic & Osteopathic Physicians,41.84540814007,-71.413508923567
1194760470,EAST SIDE PRESCRIPTION CENTER INC,"632 HOPE ST, PROVIDENCE, RI 02906",4017511430,Durable Medical Equipment & Medical Supplies,Durable Medical Equipment & Medical Supplies,Suppliers,41.843828795759,-71.397663539213
1457396673,THOMPSON RESOURCES LIMITED,"189 FOREST AVE, CRANSTON, RI 02910",4013838537,Addiction (Substance Use Disorder) Counselor,Counselor,Behavioral Health & Social Service Providers,41.763615858138,-71.435118505814
1154366599,JOHN D. GRAHAM M.D.,"100 KENYON AVE, WAKEFIELD, RI 02879",4017893434,Anesthesiology Physician,Anesthesiology,Allopathic & Osteopathic Physicians,41.432221904179,-71.496753221839
1326083767,JAMES F. GRIFFIN,"100 KENYON AVE, WAKEFIELD, RI 02879",4017880196,Specialist,Specialist,Other Service Providers,41.432221904179,-71.496753221839
1750326104,ADVANCED SPINE CENTERS OF RI,"311 WASHINGTON AVE, PROVIDENCE, RI 02905",4013316611,Chiropractor,Chiropractor,Chiropractic Providers,41.787357062802,-71.400365245471
1891730941,NAPATREE PHYSICAL THERAPY INC,"55 BEACH ST, WESTERLY, RI 02891",4013481010,Physical Therapist,Physical Therapist,"Respiratory, Developmental, Rehabilitative and Restorative Service Providers",41.365356187321,-71.829965676818
1164467221,"ELMHURST EXTENDED CARE FACILITIES, INC.","50 MAUDE ST, PROVIDENCE, RI 02908",4014562623,Skilled Nursing Facility,Skilled Nursing Facility,Nursing & Custodial Care Facilities,41.837315343135,-71.433772617668
1023053196,DR LAWRENCE T GINSBERG,"2224 PAWTUCKET AVE, EAST PROVIDENCE, RI 02914",4014312929,Durable Medical Equipment & Medical Supplies,Durable Medical Equipment & Medical Supplies,Suppliers,41.815213544045,-71.357335834911
1386680247,"CONSULTANTS IN GASTROENTEROLOGY, INC","148 W RIVER ST, SUITE 3, PROVIDENCE, RI 02904",4014216306,Gastroenterology Physician,Internal Medicine,Allopathic & Osteopathic Physicians,41.845420245038,-71.413505664537
1033155528,SUNHIL P VERMA MD MPH INC,"300 TOLL GATE RD, STE 301C, WARWICK, RI 02886",4017321700,Non-Pharmacy Dispensing Site,Non-Pharmacy Dispensing Site,Suppliers,41.7013227,-71.47259559999999
1376589895,"UNIVERSITY SURGICAL ASSOCIATES, INC.","2 DUDLEY ST STE 470, PROVIDENCE, RI 02905",4012721800,Surgery Physician,Surgery,Allopathic & Osteopathic Physicians,41.810745913892,-71.407240834819
1568408987,ROGER WILLIAMS HOSPITAL,"825 CHALKSTONE AVE, PROVIDENCE, RI 02908",4014566457,Hematology & Oncology Physician,Internal Medicine,Allopathic & Osteopathic Physicians,41.834046106806,-71.434322525691
1699711002,RIVERSIDE PEDIATRICS INC,"50 AMARAL ST, E PROVIDENCE, RI 02915",4014348009,Pediatrics Physician,Pediatrics,Allopathic & Osteopathic Physicians,41.795257474112,-71.34842371641
1629014865,FAMILY SERVICE SOCIETY OF PAWTUCKET & VICINITY,"33 SUMMER ST, PAWTUCKET, RI 02860",4017232124,Clinical Social Worker,Social Worker,Behavioral Health & Social Service Providers,41.879119289023,-71.385634824839
1568498392,ROGER WILLIAMS MEDICAL CENTER,"825 CHALKSTONE AVE, PROVIDENCE, RI 02908",4014562677,Nutritionist,Nutritionist,Dietary & Nutritional Service Providers,41.834046106806,-71.434322525691
1033145818,ELEANOR SLATER HOSPITAL PHARMACY,"111 HOWARD AVE, CRANSTON, RI 02920",4014623077,Pharmacy,Pharmacy,Suppliers,41.74492499999999,-71.46240279999999
1669408340,"GATEWAY HEALTHCARE, INC","422 POST RD, WARWICK, RI 02888",4017810033,Clinical Social Worker,Social Worker,Behavioral Health & Social Service Providers,41.760846625001,-71.403833475225
1255367942,"UNIVERSITY MEDICAL GROUP, INC","50 MAUDE ST, PROVIDENCE, RI 02908",4014565368,Multi-Specialty Clinic/Center,Clinic/Center,Ambulatory Health Care Facilities,41.837315343135,-71.433772617668
1134155864,RHODE ISLAND PAIN MEDICINE INC,"77 FRANKLIN ST, SUITE B, WESTERLY, RI 02891",4015962202,Pain Medicine (Anesthesiology) Physician,Anesthesiology,Allopathic & Osteopathic Physicians,41.362800030832,-71.814035281061
1811923519,"GATEWAY HEALTHCARE, INC","58 HAMLET AVE, WOONSOCKET, RI 02895",4017654040,Specialist,Specialist,Other Service Providers,42.002274704971,-71.506573681726
1720014442,MEETING STREET CENTER,"1000 EDDY STREET, PROVIDENCE, RI 02905",4015339100,Multi-Specialty Clinic/Center,Clinic/Center,Ambulatory Health Care Facilities,41.8012007,-71.4058599
1649206293,"GOTHAM PER DIEM, INC.","304 PEARL ST, SUITE 100, PROVIDENCE, RI 02907",4013511818,Nursing Care Agency,Nursing Care,Agencies,41.815278680673,-71.421768769361
1942236575,EPOCH SL I INC,"353 BLACKSTONE BLVD, PROVIDENCE, RI 02906",4012736565,Skilled Nursing Facility,Skilled Nursing Facility,Nursing & Custodial Care Facilities,41.844538742152,-71.386404866755
1649206277,BALD HILL PEDIATRICS,"400 BALD HILL RD, SUITE 501, WARWICK, RI 02886",4017325437,Pediatrics Physician,Pediatrics,Allopathic & Osteopathic Physicians,41.7242279,-71.47631609999999
1740216035,"SHORELINE PODIATRY, LLC","24 SALT POND RD, UNIT E-1, WAKEFIELD, RI 02879",4017832424,Foot & Ankle Surgery Podiatrist,Podiatrist,Podiatric Medicine & Surgery Service Providers,41.432196273941,-71.491724377741
1497781827,EDWARD J MCDONALD,"3466 W SHORE RD, WARWICK, RI 02886",4017386277,Durable Medical Equipment & Medical Supplies,Durable Medical Equipment & Medical Supplies,Suppliers,41.699850981438,-71.445555730536
1376579821,CROCE AND PUGLIESE VISION CARE,"622 GEORGE WASHINGTON HWY, LINCOLN MALL, LINCOLN, RI 02865",4013330550,Optometrist,Optometrist,Eye and Vision Services Providers,41.935388586959,-71.481117573824
1386671535,"THRIVE BEHAVIORAL HEALTH, INC.","2756 POST RD & 50 HEALTH LANE, WARWICK, RI 02886",4017325656,Community Health Worker,Community Health Worker,Other Service Providers,41.707538510936,-71.479218290672
1548297690,"GATEWAY HEALTHCARE, INC","4705 OLD POST RD UNIT A, CHARLESTOWN, RI 02813",4013647705,Community/Behavioral Health Agency,Community/Behavioral Health,Agencies,41.384445515252,-71.655778839174
1679500672,"WOMEN'S HEALTH OF WESTERLY, LLC","45 WELLS STREET, SUITE 104, WESTERLY, RI 02891",4013480008,Obstetrics & Gynecology Physician,Obstetrics & Gynecology,Allopathic & Osteopathic Physicians,41.362895275703,-71.824371936372
1538196555,"GATEWAY HEALTHCARE, INC","249 ROOSEVELT AVE, STE 205, PAWTUCKET, RI 02860",4017248400,Specialist,Specialist,Other Service Providers,41.881839132676,-71.382301875465
1568499887,"GATEWAY HEALTHCARE, INC","249 ROOSEVELT AVE, STE 205, PAWT, RI 02860",4017248400,Mental Illness Intermediate Care Facility,"Intermediate Care Facility, Mental Illness",Nursing & Custodial Care Facilities,41.881839132676,-71.382301875465
1588691620,THUNDERMIST HEALTH CENTER,"450 CLINTON ST, WOONSOCKET, RI 02895",4017674100,Case Management Agency,Case Management,Agencies,42.006890100143,-71.506228357549
1215964465,ORTHOPAEDIC ASSOCIATES INC,"725 RESERVOIR AVE, CRANSTON, RI 02910",4019443800,Orthopaedic Surgery Physician,Orthopaedic Surgery,Allopathic & Osteopathic Physicians,41.779773246725,-71.443272694269
1245267509,"FAMILY DOCTORS OF EAST PROVIDENCE, INC.","1445 WAMPANOAG TRL, UNIT 205, RIVERSIDE, RI 02915",4014340770,Legal Medicine,Legal Medicine,Other Service Providers,41.774841244814,-71.327162639864
1669409561,ANESTHESIOLOGY INC,"101 DUDLEY ST, C/O WOMEN & INFANTS HOSPITAL, PROVIDENCE, RI 02905",4012748110,Anesthesiology Physician,Anesthesiology,Allopathic & Osteopathic Physicians,41.810276961686,-71.411298380038
1245267681,"ANGELA L. KARAVASILIS, DO, INC.","2 WAKE ROBIN RD, SUITE 208, LINCOLN, RI 02865",4014757650,Family Medicine Physician,Family Medicine,Allopathic & Osteopathic Physicians,41.934931200728,-71.474414736975
1922036946,ATLANTIC PROFESSIONAL SERVICES OF RHODE ISLAND INCORPORATED,"100 KENYON AVENUE, WAKEFIELD, RI 02879",4017828000,Nurse Practitioner,Nurse Practitioner,Physician Assistants & Advanced Practice Nursing Providers,41.432221904179,-71.496753221839
1275561953,ROGER WILLIAMS HOSPITAL,"825 CHALKSTONE AVE, PROVIDENCE, RI 02908",4014562538,Cardiovascular Disease Physician,Internal Medicine,Allopathic & Osteopathic Physicians,41.834046106806,-71.434322525691
1861420333,RHODE ISLAND HOSPITAL,"593 EDDY ST, PROVIDENCE, RI 02903",4014446195,Pediatric Nutrition Registered Dietitian,"Dietitian, Registered",Dietary & Nutritional Service Providers,41.810923220052,-71.407246567906
1679502116,"GATEWAY HEALTHCARE, INC","249 ROOSEVELT AVE, STE 205, PAWTUCKET, RI 02860",4017248400,Clinical Social Worker,Social Worker,Behavioral Health & Social Service Providers,41.881839132676,-71.382301875465
1932138229,"LEPRE PHYSICAL THERAPY OF BRISTOL, LLC","1180 HOPE ST, BRISTOL, RI 02809",4017851016,Physical Therapist,Physical Therapist,"Respiratory, Developmental, Rehabilitative and Restorative Service Providers",41.69530700065,-71.279375761677
1063441640,MEMORIAL HOSPITAL,"111 BREWSTER ST, PAWTUCKET, RI 02860",4017292836,Hospitalist Physician,Hospitalist,Allopathic & Osteopathic Physicians,41.871438584433,-71.375278168144
1285664524,PRIMA INC,"2178 MENDON RD, SUITE 100, CUMBERLAND, RI 02864",4013335201,Pediatrics Physician,Pediatrics,Allopathic & Osteopathic Physicians,41.947315339276,-71.439397192469
1720018062,"GATEWAY HEALTHCARE, INC","249 ROOSEVELT AVE, STE 205, PAWTUCKET, RI 02860",4017248400,Specialist,Specialist,Other Service Providers,41.881839132676,-71.382301875465
1477583706,"GATEWAY HEALTHCARE, INC","249 ROOSEVELT AVE, STE 205, PAWTUCKET, RI 02860",4017248400,Specialist,Specialist,Other Service Providers,41.881839132676,-71.382301875465
1336179654,"PROVIDENCE PSYCHOLOGY SERVICES, LLC","154 WATERMAN ST, PROVIDENCE, RI 02906",4012733322,Clinical Psychologist,Psychologist,Behavioral Health & Social Service Providers,41.827675830377,-71.395402937534
1629008826,"GATEWAY HEALTHCARE, INC","351 BENEFIT ST, PAWTUCKET, RI 02861",4017248400,Specialist,Specialist,Other Service Providers,41.8922830049,-71.357026388228
1154351211,"GATEWAY HEALTHCARE, INC","160 BEECHWOOD AVE, PAWTUCKET, RI 02860",4017225573,Clinical Social Worker,Social Worker,Behavioral Health & Social Service Providers,41.870234080595,-71.373401854997
1326078122,"OCEAN STATE PSYCHOTHERAPY, INC.","1130 TEN ROD RD, SUITE F 203, NORTH KINGSTOWN, RI 02852",4012683886,Mental Health Counselor,Counselor,Behavioral Health & Social Service Providers,41.5828991867,-71.496788243456
1720019045,VNA INC,"475 KILVERT ST, SUITE 400, WARWICK, RI 02886",4015744900,Nursing Care Agency,Nursing Care,Agencies,41.729214755688,-71.451526713252
1073544664,"BLOCK ISLAND HEALTH SERVICES, INC.","6 PAYNE ROAD, BLOCK ISLAND, RI 02807",4014662125,Clinic/Center,Clinic/Center,Ambulatory Health Care Facilities,41.160215604228,-71.564272224195
1043240799,THE PROVIDENCE CENTER,"890 CENTERVILLE RD, WARWICK, RI 02886",4012742500,Peer Specialist,Peer Specialist,Other Service Providers,41.696778880474,-71.492632577758
1245261817,SMITH INTERNAL MEDICINE GROUP LTD,"100 HIGHLAND AVE, SUITE 203, PROVIDENCE, RI 02906",4015212002,Internal Medicine Physician,Internal Medicine,Allopathic & Osteopathic Physicians,41.849908982271,-71.400894677279
1700817384,UNIVERSITY ORAL & MAXILLOFACIAL SURGERY LTD,"1370 S COUNTY TRL, EAST GREENWICH, RI 02818",4018858575,Oral and Maxillofacial Surgery (Dentist),Dentist,Dental Providers,41.656729358547,-71.497194639807
1164453429,"VNA SUPPORT SERVICES, INC","475 KILVERT ST, 4TH FLOOR, WARWICK, RI 02886",4015744900,Home Health Agency,Home Health,Agencies,41.729214755688,-71.451526713252
1073544706,DIALYSIS CENTER OF WEST WARWICK LLC,"1775 BALD HILL RD, WARWICK, RI 02886",4018238420,End-Stage Renal Disease (ESRD) Treatment Clinic/Center,Clinic/Center,Ambulatory Health Care Facilities,41.689594285529,-71.500834608494
1275565012,"CARDIOVASCULAR ASSOCIATES OF RI, INC.","1076 NORTH MAIN STREET, PROVIDENCE, RI 02904",4012732460,Cardiovascular Disease Physician,Internal Medicine,Allopathic & Osteopathic Physicians,41.850784202522,-71.402790252188
1598796476,"BAYADA HOME HEALTH CARE, INC.","260 W EXCHANGE ST STE 1, PROVIDENCE, RI 02903",4012731112,Nursing Care Agency,Nursing Care,Agencies,41.82532168902,-71.422374319648
1073544243,DIALYSIS CENTER OF WOONSOCKET LLC,"2100 DIAMOND HILL RD, WOONSOCKET, RI 02895",4017654995,End-Stage Renal Disease (ESRD) Treatment Clinic/Center,Clinic/Center,Ambulatory Health Care Facilities,42.014887162084,-71.468691178535
1134151699,CORAM LLC,"ONE CVS DRIVE, WOONSOCKET, RI 02895",4017651500,Pharmacy,Pharmacy,Suppliers,41.990826896001,-71.478193537831
1568494789,"GATEWAY HEALTHCARE, INC","249 ROOSEVELT AVE, STE 205, PAWTUCKET, RI 02860",4017248400,Specialist,Specialist,Other Service Providers,41.881839132676,-71.382301875465
1508898909,"FAIRLAWN PRIMARY CARE, INC","886 MINERAL SPRING AVE, PAWTUCKET, RI 02860",4014753063,Internal Medicine Physician,Internal Medicine,Allopathic & Osteopathic Physicians,41.870328732419,-71.417289811671
1386676245,STOP AND SHOP SUPERMARKET CO LLC,"1360 W MAIN RD, MIDDLETOWN, RI 02842",4018499640,Pharmacy,Pharmacy,Suppliers,41.536680865009,-71.292141705952
1194757054,STOP AND SHOP SUPERMARKET CO LLC,"2470 WARWICK AVE, WARWICK, RI 02889",4017324060,Pharmacy,Pharmacy,Suppliers,41.708820937262,-71.397613392281
1003848961,"THE STOP & SHOP SUPERMARKET COMPANY, LLC","91 POINT JUDITH RD, NARRAGANSETT, RI 02882",4017837768,Durable Medical Equipment & Medical Supplies,Durable Medical Equipment & Medical Supplies,Suppliers,41.427913046462,-71.480864355078
1821020785,THE STOP & SHOP SUPERMARKET COMPANY LLC,"300 QUAKER LN, WARWICK, RI 02886",4018280533,Pharmacy,Pharmacy,Suppliers,41.688880408898,-71.501059959037
1649202508,STOP AND SHOP SUPERMARKET CO LLC,"595 SMITHFIELD RD, N SMITHFIELD, RI 02896",4017656722,Durable Medical Equipment & Medical Supplies,Durable Medical Equipment & Medical Supplies,Suppliers,41.983415960973,-71.517387961814
1376575233,STOP AND SHOP SUPERMARKET CO LLC,"446 PUTNAM PIKE, GREENVILLE, RI 02828",4019491848,Pharmacy,Pharmacy,Suppliers,41.870154830759,-71.533756463989
1285666149,"THE STOP & SHOP SUPERMARKET COMPANY, LLC","70 MENDON RD, CUMBERLAND, RI 02864",4017223401,Durable Medical Equipment & Medical Supplies,Durable Medical Equipment & Medical Supplies,Suppliers,41.913401244779,-71.403776726626
1093747958,STOP AND SHOP SUPERMARKET CO LLC,"200 ATWOOD AVE, CRANSTON, RI 02920",4019442669,Community/Retail Pharmacy,Pharmacy,Suppliers,41.780992719784,-71.472393551585
1902838865,THE STOP & SHOP SUPERMARKET COMPANY LLC,"1128 MINERAL SPRING AVE, NORTH PROVIDENCE, RI 02904",4017273900,Pharmacy,Pharmacy,Suppliers,41.86844747364,-71.432781170359
1811929771,THE STOP & SHOP SUPERMARKET COMPANY LLC,"850 MANTON AVE, PROVIDENCE, RI 02909",4014530288,Pharmacy,Pharmacy,Suppliers,41.832946283729,-71.464873375737
1447282306,THE STOP & SHOP SUPERMARKET COMPANY LLC,"622 GEORGE WASHINGTON HWY, LINCOLN, RI 02865",4013340754,Durable Medical Equipment & Medical Supplies,Durable Medical Equipment & Medical Supplies,Suppliers,41.935388586959,-71.481117573824
1326070244,"X-RAY ASSOCIATES, INC","65 SOCKANOSSET CROSS RD, CRANSTON, RI 02920",4019431454,Diagnostic Radiology Physician,Radiology,Allopathic & Osteopathic Physicians,41.754104910137,-71.454677912943
1558394049,"MILESTONE DENTAL CARE, INC.","94 E MAIN RD, MIDDLETOWN, RI 02842",4018462314,General Practice Dentistry,Dentist,Dental Providers,41.517707122864,-71.297589478779
1427081140,"MARSHA FITTRO PC,INC.","184 WAMPANOAG TRL, RIVERSIDE, RI 02915",4014355128,Diabetes Educator Registered Nurse,Registered Nurse,Nursing Service Providers,41.796440794524,-71.356140234098
1922031665,SCANDINAVIAN HOME INC,"1811 BROAD ST, CRANSTON, RI 02905",4014611433,Skilled Nursing Facility,Skilled Nursing Facility,Nursing & Custodial Care Facilities,41.776479066605,-71.399680750426
1053344515,"RHODE ISLAND LIMB CO, INC","1559 ELMWOOD AVE, CRANSTON, RI 02910",4019416230,Specialist,Specialist,Other Service Providers,41.76614685045,-71.425349586223
1568495232,RHODE ISLAND CARDIOVASCULAR GROUP,"68 CUMBERLAND ST, SUITE 103, WOONSOCKET, RI 02895",4017623838,Cardiovascular Disease Physician,Internal Medicine,Allopathic & Osteopathic Physicians,42.00773432701,-71.502419621914
1265465843,PHARMACY CORPORATION OF AMERICA,"83 VERMONT AVE, UNIT 2, WARWICK, RI 02888",4017374165,Nursing Facility Supplies (DME),Durable Medical Equipment & Medical Supplies,Suppliers,41.740060930943,-71.441558316104
1396778593,LANDMARK PHYSICIAN OFFICE SERVICES,"219 CASS AVE, WOONSOCKET, RI 02895",4017694100,Obstetrics & Gynecology Physician,Obstetrics & Gynecology,Allopathic & Osteopathic Physicians,42.00542320533,-71.494853346956
1922031970,"NEUROPSYCHOLOGY PARTNERS, INC","50 MAUDE ST, ELMHURST 5TH FLOOR, PROVIDENCE, RI 02908",4014566587,Clinical Neuropsychologist,Clinical Neuropsychologist,Behavioral Health & Social Service Providers,41.837315343135,-71.433772617668
1720011018,WAMPANOAG MEDICAL CLINIC & TREATMENT CENTER,"1970 PAWTUCKET AVE, EAST PROVIDENCE, RI 02914",4014386620,Urgent Care Clinic/Center,Clinic/Center,Ambulatory Health Care Facilities,41.821542317412,-71.35616955485
1497788541,"SANDRA E. DUCLOS, PH.D., INC.","6 BLACKSTONE VALLEY PL, SUITE 109, LINCOLN, RI 02865",4013349104,Psychologist,Psychologist,Behavioral Health & Social Service Providers,41.9353957,-71.4554459
1831122902,"CNE WELLNESS CENTERS, LLC","2191 POST RD, WARWICK, RI 02886",4017323066,Cardiac Rehabilitation Clinic/Center,Clinic/Center,Ambulatory Health Care Facilities,41.721783800807,-71.441605347275
1548294408,THE STOP & SHOP SUPERMARKET COMPANY LLC,"368398 COTTAGE STREET, PAWTUCKET, RI 02861",4017226538,Durable Medical Equipment & Medical Supplies,Durable Medical Equipment & Medical Supplies,Suppliers,41.8873785,-71.366963
1184658577,"GATEWAY HEALTHCARE, INC","1443 HARTFORD AVE, JOHNSTON, RI 02919",4015531033,Community/Behavioral Health Agency,Community/Behavioral Health,Agencies,41.824461898086,-71.501206331832
1144254038,ROGER WILLIAMS HOSPITAL,"825 CHALKSTONE AVE, PROVIDENCE, RI 02908",4014562690,Radiation Oncology Physician,Radiology,Allopathic & Osteopathic Physicians,41.834046106806,-71.434322525691
1053345942,ROGER WILLIAMS HOSPITAL,"825 CHALKSTONE AVE, PROVIDENCE, RI 02908",4014564593,Internal Medicine Physician,Internal Medicine,Allopathic & Osteopathic Physicians,41.834046106806,-71.434322525691
1487688172,LONG-TERM CARE PSYCHIATRY,"345 BLACKSTONE BLVD, FIRST FLOOR WELD BUILDING, PROVIDENCE, RI 02906",4012779933,Psychiatry Physician,Psychiatry & Neurology,Allopathic & Osteopathic Physicians,41.844403030283,-71.386372388713
1477587871,"GATEWAY HEALTHCARE, INC","249 ROOSEVELT AVE, SUITE 205, PAWTUCKET, RI 02860",4017248400,Specialist,Specialist,Other Service Providers,41.881839132676,-71.382301875465
1366476707,"GATEWAY HEALTHCARE, INC","80 HAMLET AVE, WOONSOCKET, RI 02895",4017661665,Addiction (Substance Use Disorder) Counselor,Counselor,Behavioral Health & Social Service Providers,42.002186195062,-71.50448590256
1659305068,"GATEWAY HEALTHCARE, INC","101 BACON ST, PAWTUCKET, RI 02860",4017223560,Clinical Social Worker,Social Worker,Behavioral Health & Social Service Providers,41.872633441058,-71.36701349792
1467486779,"MEDI-RENTS, INC","33A PLAN WAY, WARWICK, RI 02886",4017372002,Customized Equipment (DME),Durable Medical Equipment & Medical Supplies,Suppliers,41.736871549041,-71.446062694959
1548294861,WOONSOCKET URGENT CARE,"25 JOHN A CUMMINGS WAY, 3RD FLOOR, WOONSOCKET, RI 02895",4017662700,Emergency Medicine Physician,Emergency Medicine,Allopathic & Osteopathic Physicians,42.007570171752,-71.505231575333
1114952215,THE STOP & SHOP SUPERMARKET COMPANY LLC,"204 GARFIELD AVE, CRANSTON, RI 02920",4019438285,Durable Medical Equipment & Medical Supplies,Durable Medical Equipment & Medical Supplies,Suppliers,41.796546176556,-71.442057360612
1932133006,"SHORELINE PODIATRY, INC","24 SALT POND RD, UNIT E-1, WAKEFIELD, RI 02879",4017832424,Podiatrist,Podiatrist,Podiatric Medicine & Surgery Service Providers,41.432196273941,-71.491724377741
1346275880,"GATEWAY HEALTHCARE, INC","249 ROOSEVELT AVE, SUITE 205, PAWTUCKET, RI 02860",4017248400,Clinical Social Worker,Social Worker,Behavioral Health & Social Service Providers,41.881839132676,-71.382301875465
1942225172,"VNA, INC","475 KILVERT ST, 4TH FLOOR, WARWICK, RI 02886",4015744900,Community Based Hospice Care Agency,"Hospice Care, Community Based",Agencies,41.729214755688,-71.451526713252
1962437442,"ALAN R. NOWICK, DPM","201 BROADWAY, PROVIDENCE, RI 02903",4012738855,Podiatrist,Podiatrist,Podiatric Medicine & Surgery Service Providers,41.821085450837,-71.424103555657
1497780993,DAVID S. POMERANTZ MD INC,"333 SCHOOL STREET, SUITE 216, PAWTUCKET, RI 02860",4017286990,Dermatology Physician,Dermatology,Allopathic & Osteopathic Physicians,41.87201130275,-71.380632841157
1558386227,ATWOOD MEDICAL ASSOCIATES LTD,"1524 ATWOOD AVENUE, SUITE 220, JOHNSTON, RI 02919",4012721900,Internal Medicine Physician,Internal Medicine,Allopathic & Osteopathic Physicians,41.826806293832,-71.499927322472
1588689129,"EAST GREENWICH SPINE & SPORT, INC.","1351 S COUNTY TRL, BLG 1, SUITE 100, EAST GREENWICH, RI 02818",4018865907,Physical Medicine & Rehabilitation Physician,Physical Medicine & Rehabilitation,Allopathic & Osteopathic Physicians,41.658643113236,-71.497532789489
1558387829,RHODE ISLAND CARDIOLOGY CENTER,"450 VETERANS MEMORIAL PKWY, BUILDING 15, EAST PROVIDENCE, RI 02914",4012282024,Cardiovascular Disease Physician,Internal Medicine,Allopathic & Osteopathic Physicians,41.808027588584,-71.385984884079
1407871270,MIDLAND MEDICAL INC,"1312 OAKLAWN AVE, CRANSTON, RI 02920",4014633380,Family Medicine Physician,Family Medicine,Allopathic & Osteopathic Physicians,41.73381271869,-71.477356874292
1467478156,"PAWTUXET VALLEY MEDICAL, INC.","982 TIOGUE AVE, COVENTRY, RI 02816",4018216800,Adult Health Nurse Practitioner,Nurse Practitioner,Physician Assistants & Advanced Practice Nursing Providers,41.679747508483,-71.576336493385
1073539227,"MEDICINE AND LONG TERM CARE ASSOCIATES, LLC","333 BUDLONG RD, CRANSTON, RI 02920",4019434530,Internal Medicine Physician,Internal Medicine,Allopathic & Osteopathic Physicians,41.774143431916,-71.457443069125
1275559866,CARE NEW ENGLAND WELLNESS CENTER,"15 CATAMORE BLVD, EAST PROVIDENCE, RI 02914",4014347784,Comprehensive Outpatient Rehabilitation Facility (CORF),Clinic/Center,Ambulatory Health Care Facilities,41.80341416672,-71.343149226605
1043236656,TRU-CARE PHYSICAL THERAPY INC.,"18 5TH AVE, EAST GREENWICH, RI 02818",4018849541,Physical Therapist,Physical Therapist,"Respiratory, Developmental, Rehabilitative and Restorative Service Providers",41.654172599824,-71.458671708547
1144247396,WAL-MART STORES EAST LP,"258 POST RD, WESTERLY, RI 02891",4013220793,Durable Medical Equipment & Medical Supplies,Durable Medical Equipment & Medical Supplies,Suppliers,41.351853147761,-71.765135818039
1639196884,WAL-MART STORES EAST LP,"7 DOWLING VILLAGE BLVD, N SMITHFIELD, RI 02896",4017691695,Durable Medical Equipment & Medical Supplies,Durable Medical Equipment & Medical Supplies,Suppliers,41.975768123995,-71.507404907264
1548287790,WAL-MART STORES EAST LP,"650 CENTRE OF NEW ENGLAND BLVD, COVENTRY, RI 02816",4018237060,Pharmacy,Pharmacy,Suppliers,41.662075526864,-71.568956939848
1457378606,WAL-MART STORES EAST LP,"840 POST RD, WARWICK, RI 02888",4017818340,Durable Medical Equipment & Medical Supplies,Durable Medical Equipment & Medical Supplies,Suppliers,41.753284215857,-71.414738423711
