NPI,Provider Name,Full Address,Phone,Specialty,Specialty_Classification,Specialty_Grouping,Latitude,Longitude
1366445330,"BIOSCRIP PHARMACY, INC.","1325 14TH ST NW, WASHINGTON, DC 20005",2023328811,Durable Medical Equipment & Medical Supplies,Durable Medical Equipment & Medical Supplies,Suppliers,38.907925990424,-77.03187807618
1902809585,HOWARD UNIVERSITY COLLEGE OF DENTISTRY,"600 W ST. NW SUITE 326, WASHINGTON, DC 20059",2028060066,Dental Clinic/Center,Clinic/Center,Ambulatory Health Care Facilities,38.919029158412,-77.020864152069
1528061827,NATIONAL REHABILITATION HOSPITAL INC,"102 IRVING ST NW, NEURO CENTER, WASHINGTON, DC 20010",2028771760,Physical Therapist,Physical Therapist,"Respiratory, Developmental, Rehabilitative and Restorative Service Providers",38.931124119155,-77.012291773469
1316949654,MGMC LLC,"3800 RESERVOIR RD NW, WASHINGTON, DC 20007",8888961400,Psychiatry Physician,Psychiatry & Neurology,Allopathic & Osteopathic Physicians,38.912544697661,-77.074941256453
1891797148,"MGMC, LLC","3800 RESERVOIR RD NW, WASHINGTON, DC 20007",8888961400,General Practice Physician,General Practice,Allopathic & Osteopathic Physicians,38.912544697661,-77.074941256453
1285636522,"MEDSTAR GEORGETOWN MEDICAL CENTER, INC","3800 RESERVOIR RD NW, WASHINGTON, DC 20007",8888961400,Internal Medicine Physician,Internal Medicine,Allopathic & Osteopathic Physicians,38.912544697661,-77.074941256453
1386649028,GRUBBS PHARMACY OF DC INC,"326 E CAPITOL ST NE, WASHINGTON, DC 20003",2025434400,Compounding Pharmacy,Pharmacy,Suppliers,38.88986851053,-77.001617654133
1386642064,"RICHARD SCHAENGOLD, MD, PC","6685 BARNABY ST NW, WASHINGTON, DC 20015",2023625513,Psychiatric/Mental Health Clinical Nurse Specialist,Clinical Nurse Specialist,Physician Assistants & Advanced Practice Nursing Providers,38.977454595346,-77.059877738337
1124027404,THE WASHINGTON HOME,"3720 UPTON ST NW, WASHINGTON, DC 20016",3015606075,Skilled Nursing Facility,Skilled Nursing Facility,Nursing & Custodial Care Facilities,38.942160911315,-77.074533524999
1316946668,THE ARMY DISTAFF FOUNDATION INC,"6200 OREGON AVE NW, WASHINGTON, DC 20015",2025410307,Skilled Nursing Facility,Skilled Nursing Facility,Nursing & Custodial Care Facilities,38.971091050288,-77.0535528627
1598764508,"MEDICAL FACULTY ASSOCIATES, INC.","2150 PENNSYLVANIA AVE NW, WASHINGTON, DC 20037",2027413398,Health Maintenance Organization,Health Maintenance Organization,Managed Care Organizations,38.901653229487,-77.047796217413
1184624728,"T & N RELIABLE NURSING CARE,LLC","3500 18TH ST NE, WASHINGTON, DC 20018",2025296510,Case Management Agency,Case Management,Agencies,38.933163710711,-76.979690446631
1497757124,RANKIN ORTHOPAEDIC & SPORTS MEDICINE CENTER,"1160 VARNUM ST NE, SUITE 312, WASHINGTON, DC 20017",2025267031,Orthopaedic Surgery Physician,Orthopaedic Surgery,Allopathic & Osteopathic Physicians,38.942923499442,-76.991108253954
1184616617,"WHITMAN-WALKER CLINIC, INC","1525 14TH ST NW, WASHINGTON, DC 20005",2027457000,Community Health Clinic/Center,Clinic/Center,Ambulatory Health Care Facilities,38.910492384488,-77.031881597129
1770578288,"INGLESIDE AT ROCK CREEK, INC","3050 MILITARY ROAD, NW, WASHINGTON, DC 20015",2025963131,Skilled Nursing Facility,Skilled Nursing Facility,Nursing & Custodial Care Facilities,38.960961907047,-77.061638550453
1568458297,DISTRICT HOSPITAL PARTNERS L P,"900 23RD ST NW, WASHINGTON, DC 20037",2027154000,Psychiatric Hospital Unit,Psychiatric Unit,Hospital Units,38.900758510145,-77.050200823368
1487640207,DISTRICT HOSPITAL PARTNERS L P,"900 23RD ST NW, WASHINGTON, DC 20037",2027154000,Family Nurse Practitioner,Nurse Practitioner,Physician Assistants & Advanced Practice Nursing Providers,38.900758510145,-77.050200823368
1548257082,DISTRICT HOSPITAL PARTNERS L P,"900 23RD ST NW, WASHINGTON, DC 20037",2027154000,Rehabilitation Hospital Unit,Rehabilitation Unit,Hospital Units,38.900758510145,-77.050200823368
1639168743,ABRAHAM AND LAURA LISNER HOME FOR AGED WOMEN,"5425 WESTERN AVE NW, WASHINGTON, DC 20015",2029666667,Skilled Nursing Facility,Skilled Nursing Facility,Nursing & Custodial Care Facilities,38.962150098218,-77.083880223466
1588653604,JEANNE JUGAN RESIDENCE LITTLE SISTERS OF THE POOR,"4200 HAREWOOD RD NE, WASHINGTON, DC 20017",2022691831,Nursing Facility/Intermediate Care Facility,Nursing Facility/Intermediate Care Facility,Nursing & Custodial Care Facilities,38.939215975501,-77.002784904385
1558351163,CAPITAL PULMONARY INTERNISTS PC,"2440 M ST NW, #810, WASHINGTON, DC 20037",2028333000,Internal Medicine Physician,Internal Medicine,Allopathic & Osteopathic Physicians,38.905202872095,-77.052192324572
1205826450,DUPONT III PC,"106 IRVING ST NW, SUITE 418, WASHINGTON, DC 20010",2028822500,Nephrology Physician,Internal Medicine,Allopathic & Osteopathic Physicians,38.931121413944,-77.012428386845
1235120239,THE WASHINGTON HOME & COMMUNITY HOSPICES INC,"1875 CONNECTICUT AVE NW STE 540, WASHINGTON, DC 20009",2029663720,Community Based Hospice Care Agency,"Hospice Care, Community Based",Agencies,38.915643893108,-77.046150135589
1932190626,PROVIDENCE HOSPITAL,"1150 VARNUM ST NE, WASHINGTON, DC 20017",2028547000,Urgent Care Clinic/Center,Clinic/Center,Ambulatory Health Care Facilities,38.94292349945,-76.99131821994
1588655963,NATIONAL EMERGENCY SERVICES DISTRICT OF COLUMBIA INC,"5255 LOUGHBORO RD NW, WASHINGTON, DC 20016",2025374080,Emergency Medicine Physician,Emergency Medicine,Allopathic & Osteopathic Physicians,38.935795505294,-77.109291835731
1598756975,NATIONAL EMERGENCY SERVICES DISTRICT OF COLUMBIA INC,"1310 SOUTHERN AVE SE, WASHINGTON, DC 20032",2025746000,Emergency Medicine Physician,Emergency Medicine,Allopathic & Osteopathic Physicians,38.834714676807,-76.984090338685
1669453809,PROVIDENCE HEALTH SERVICES INC,"1160 VARNUM ST NE, WASHINGTON, DC 20017",2028547000,Internal Medicine Physician,Internal Medicine,Allopathic & Osteopathic Physicians,38.942923499442,-76.991108253954
1265413850,"RADIATION ONCOLOGY ASSOCIATES OF WASHINGTON, PC","SIBLEY MEMORIAL HOSPITAL, DEPT OF RADIATION ONCOLOGY, 5255 LOUGHBORO ROAD, NW, WASHINGTON, DC 20016",2025374787,Specialist,Specialist,Other Service Providers,38.9365376,-77.1092529
1649252826,KENNETH L. MCCOY & ASSOCIATES,"1150 VARNUM ST NE, PATHOLOGY DEPATMENT, WASHINGTON, DC 20017",4108729188,Clinical Medical Laboratory,Clinical Medical Laboratory,Laboratories,38.94292349945,-76.99131821994
1295717312,"DREW E PERMUT, PHD, PC","1234 19TH ST NW, SUITE 800, WASHINGTON, DC 20036",2027759590,Clinical Psychologist,Psychologist,Behavioral Health & Social Service Providers,38.906741600446,-77.043521011297
1265414403,"M. S. ZONOZI, MD","1328 SOUTHERN AVE SE, SUITE 307, WASHINGTON, DC 20032",2025635485,Nephrology Physician,Internal Medicine,Allopathic & Osteopathic Physicians,38.834978689747,-76.983751095579
1689656183,HOSPITAL FOR SICK CHILDREN,"1731 BUNKER HILL RD NE, WASHINGTON, DC 20017",2028324400,Special Hospital,Special Hospital,Hospitals,38.942102992902,-76.981556775815
1124003405,"WASHINGTON IMAGING ASSOCIATES OF DC, LLC","3301 NEW MEXICO AVE NW, SUITE 106, WASHINGTON, DC 20016",2029660606,Diagnostic Radiology Physician,Radiology,Allopathic & Osteopathic Physicians,38.932948524519,-77.085443114713
1477538361,USCG AIR STATION PORT ANGELES MEDCIAL/DENTAL CLINIC,"COMMANDANT USCG HQ (CG-1122), 2100 2ND STREET, WASHINGTON, DC 20593",2022670801,Military/U.S. Coast Guard Outpatient Clinic/Center,Clinic/Center,Ambulatory Health Care Facilities,38.8641217,-77.0130384
1659357101,"HELFGOTT, HARGETT & PLUZNIK, M.D., P.C.","1155 21ST ST NW STE M400, WASHINGTON, DC 20036",2022964900,Ophthalmology Physician,Ophthalmology,Allopathic & Osteopathic Physicians,38.904773729731,-77.046572610455
1962489757,JEMSEK SPECIALTY CLINIC,"2440 M ST NW, SUITE 205, WASHINGTON, DC 20037",7049133458,Infectious Disease Physician,Internal Medicine,Allopathic & Osteopathic Physicians,38.905202872095,-77.052192324572
1144207911,JANILCAR INC,"5001 NEW HAMPSHIRE AVE NW, WASHINGTON, DC 20011",2027263100,Durable Medical Equipment & Medical Supplies,Durable Medical Equipment & Medical Supplies,Suppliers,38.95123146719,-77.013140527428
1952388621,U.S. COAST GUARD,"U.S. COAST GUARD, 2100 2ND ST SW, SUITE 5314, WASHINGTON, DC 20593",5038616240,Other Technician,"Technician, Other","Technologists, Technicians & Other Technical Service Providers",38.8641217,-77.0130384
1295713774,US COAST GUARD,"COMDT (CG-1122) US COAST GUARD, 2100 2ND ST SW SUITE 5314, WASHINGTON, DC 20593",2514416560,Other Technician,"Technician, Other","Technologists, Technicians & Other Technical Service Providers",38.8641217,-77.0130384
1033197355,LABORATORY CORPORATION OF AMERICA,"3924 MINNESOTA AVE NE, WASHINGTON, DC 20019",2023991706,Clinical Medical Laboratory,Clinical Medical Laboratory,Laboratories,38.89371733282,-76.950294574991
1154301240,ENDOSCOPY CENTER OF WASHINGTON DC LP,"2021 K ST NW, SUITE T-115, WASHINGTON, DC 20006",2027750574,Ambulatory Surgical Clinic/Center,Clinic/Center,Ambulatory Health Care Facilities,38.902585509594,-77.045299020768
1275503385,US COAST GUARD,"2100 2ND ST SW, SUITE 5314, WASHINGTON, DC 20593",2514416404,Other Technician,"Technician, Other","Technologists, Technicians & Other Technical Service Providers",38.8642076,-77.0130799
1013988328,316TH MEDGRP-MALCOLM GROW,"238 BROOKLEY AVE, WASHINGTON, DC 20032",2024043602,Military/U.S. Coast Guard Outpatient Clinic/Center,Clinic/Center,Ambulatory Health Care Facilities,38.8368669,-77.0138048
1598736753,CARROLL MANOR,"725 BUCHANAN ST NE, WASHINGTON, DC 20017",2022697100,Skilled Nursing Facility,Skilled Nursing Facility,Nursing & Custodial Care Facilities,38.946210907593,-76.996739707296
1942271341,CENTER RADIOLOGY PC,"110 IRVING ST NW, WASHINGTON, DC 20010",2028776429,Diagnostic Radiology Physician,Radiology,Allopathic & Osteopathic Physicians,38.931118708734,-77.012565000222
1336111459,WASHINGTON HOSPITAL CENTER,"110 IRVING ST NW, WASHINGTON, DC 20010",2028776066,Nuclear Medicine Physician,Nuclear Medicine,Allopathic & Osteopathic Physicians,38.931118708734,-77.012565000222
1508838632,"PATHSTAR, P.C.","110 IRVING ST NW, WASHINGTON, DC 20010",2028776190,Anatomic Pathology & Clinical Pathology Physician,Pathology,Allopathic & Osteopathic Physicians,38.931118708734,-77.012565000222
1407828536,SURGICAL ONCOLOGY ASSOCIATES PC,"106 IRVING ST NW, SUITE N-3900, WASHINGTON, DC 20010",2028773912,Surgical Oncology Physician,Surgery,Allopathic & Osteopathic Physicians,38.931121413944,-77.012428386845
1902878713,"SUGARBAKER ONCOLOGY ASSOCIATES, PC","106 IRVING ST NW, SUITE N-3900, WASHINGTON, DC 20010",2028773908,Surgical Oncology Physician,Surgery,Allopathic & Osteopathic Physicians,38.931121413944,-77.012428386845
1013989896,WASHINGTON METROPOLITAN PRACTICE PLAN,"110 IRVING ST NW, RM 4B42/4B39, WASHINGTON, DC 20010",2028777259,Surgical Critical Care Physician,Surgery,Allopathic & Osteopathic Physicians,38.931118708734,-77.012565000222
1932174455,NATIONAL CAPITAL CONSORTIUM,"6900 GEORGIA AVE NW, WASHINGTON, DC 20307",2027826188,Military Hospital,Military Hospital,Hospitals,38.975877329852,-77.026726607995
1346216132,WALTER REED ARMY MEDICAL CENTER,"6900 GEORGIA AVE NW, WASHINGTON, DC 20307",2027821628,Military Hospital,Military Hospital,Hospitals,38.975877329852,-77.026726607995
1427024819,DVA HEALTHCARE RENAL CARE INC,"1231 BRENTWOOD RD NE, WASHINGTON, DC 20018",2026363711,End-Stage Renal Disease (ESRD) Treatment Clinic/Center,Clinic/Center,Ambulatory Health Care Facilities,38.920973083742,-76.989235129169
1386610558,TRC - GEORGETOWN REGIONAL DIALYSIS LLC,"2233 WISCONSIN AVE NW STE 215, WASHINGTON, DC 20007",2023371431,End-Stage Renal Disease (ESRD) Treatment Clinic/Center,Clinic/Center,Ambulatory Health Care Facilities,38.919938423677,-77.071183484304
1629044896,RENAL TREATMENT CENTERS MID ATLANTIC INC,"5000 NANNIE HELEN BURROUGHS AVE NE, WASHINGTON, DC 20019",2023997700,End-Stage Renal Disease (ESRD) Treatment Clinic/Center,Clinic/Center,Ambulatory Health Care Facilities,38.898400506126,-76.929512118379
1598731861,DVA HEALTHCARE RENAL CARE INC,"920 BLADENSBURG RD NE, WASHINGTON, DC 20002",2023990812,End-Stage Renal Disease (ESRD) Treatment Clinic/Center,Clinic/Center,Ambulatory Health Care Facilities,38.902011705945,-76.982296485828
1851367031,DVA RENAL HEALTHCARE INC,"3857A PENNSYLVANIA AVE SE, WASHINGTON, DC 20020",2025819440,End-Stage Renal Disease (ESRD) Treatment Clinic/Center,Clinic/Center,Ambulatory Health Care Facilities,38.865215377352,-76.950556467911
1194791376,DVA RENAL HEALTHCARE INC,"2131 K ST NW, STE 300, WASHINGTON, DC 20037",2022238453,End-Stage Renal Disease (ESRD) Treatment Clinic/Center,Clinic/Center,Ambulatory Health Care Facilities,38.902621509663,-77.047339208283
1609842889,RENAL TREATMENT CENTERS MID ATLANTIC INC,"5155 LEE ST NE, WASHINGTON, DC 20019",2023981047,End-Stage Renal Disease (ESRD) Treatment Clinic/Center,Clinic/Center,Ambulatory Health Care Facilities,38.904603913335,-76.925694130514
1942276134,TRC - GEORGETOWN REGIONAL DIALYSIS LLC,"810 1ST ST NE, STE 100, WASHINGTON, DC 20002",2028423127,End-Stage Renal Disease (ESRD) Treatment Clinic/Center,Clinic/Center,Ambulatory Health Care Facilities,38.900392597541,-77.006710840636
1104894278,SELECT PHYSICAL THERAPY HOLDINGS INC,"919 18TH ST NW, STE 100, WASHINGTON, DC 20006",2027755951,Rehabilitation Clinic/Center,Clinic/Center,Ambulatory Health Care Facilities,38.901594047962,-77.041621598798
1750350583,"EYE ASSOCIATES OF WASHINGTON, DC PC","4910 MASSACHUSETTS AVE NW, SUITE 21, WASHINGTON, DC 20016",2026866700,Ophthalmology Physician,Ophthalmology,Allopathic & Osteopathic Physicians,38.946458042861,-77.097718017898
1487615159,SIDNEY S MARKOWITZ DDS PC,"1145 19TH STREET NW, SUITE 316, WASHINGTON, DC 20036",2028338240,Dentist,Dentist,Dental Providers,38.904609776957,-77.04338007618
1942261706,"GASTROINTESTINAL ASSOCIATES, PC","1160 VARNUM ST NE, 311, WASHINGTON, DC 20017",2028322880,Gastroenterology Physician,Internal Medicine,Allopathic & Osteopathic Physicians,38.942923499442,-76.991108253954
1871557488,FOXHALL PEDIATRICS PC,"3301 NEW MEXICO AVE NW, STE 238 FOXHALL SQUARE, WASHINGTON, DC 20016",2025371180,Pediatrics Physician,Pediatrics,Allopathic & Osteopathic Physicians,38.932948524519,-77.085443114713
1043274103,TRINITY MEDICAL SUPPLY AND NURSING SERVICE,"7600 GEORGIA AVE NW, 220, WASHINGTON, DC 20012",2027235900,Durable Medical Equipment & Medical Supplies,Durable Medical Equipment & Medical Supplies,Suppliers,38.982108595294,-77.02661754712
1174588958,"HEALTH MANAGEMENT, INC.","1707 L ST NW STE 900, WASHINGTON, DC 20036",2028291111,Home Health Agency,Home Health,Agencies,38.903800509117,-77.039090235493
1497713655,"HASSAN BUSHEHRI, M.D., P.C.","1328 SOUTHERN AVE SE, SUITE 201, WASHINGTON, DC 20032",2025632200,Internal Medicine Physician,Internal Medicine,Allopathic & Osteopathic Physicians,38.834978689747,-76.983751095579
1093773251,WASHINGTON PEDIATRIC ASSOC,"1145 19TH ST NW, #708, WASHINGTON, DC 20036",2029555625,Pediatrics Physician,Pediatrics,Allopathic & Osteopathic Physicians,38.904609776957,-77.04338007618
1255399853,USCG ACADEMY,"USCG HQ, COMDT2100 (CG-1122) 2ND ST ROOM 5314, WASHINGTON, DC 20593",8604448402,Other Technician,"Technician, Other","Technologists, Technicians & Other Technical Service Providers",38.8521327,-77.00150579999999
1235187428,WASHINGTON DC VAMC,"50 IRVING STREET, N.W., WASHINGTON, DC 20422",2024758000,Department of Veterans Affairs (VA) Pharmacy,Department of Veterans Affairs (VA) Pharmacy,Suppliers,38.93112691116,-77.010896211168
1043269566,LUCY WEBB HAYES NATIONAL TRAINING SCHOOL FOR DEACONESSES & MISSIONARIE,"5255 LOUGHBORO RD NW, WASHINGTON, DC 20016",2025374680,Psychiatric Hospital Unit,Psychiatric Unit,Hospital Units,38.935795505294,-77.109291835731
1417906876,"DHC OF WASHINGTON, L.L.C.","2121 K ST NW, SUITE 100, WASHINGTON, DC 20037",2022235211,Physiological Laboratory,Physiological Laboratory,Laboratories,38.902621509655,-77.047131948235
1336198704,WASHINGTON DC VAMC,"50 IRVING ST NW, WASHINGTON, DC 20422",8282572333,General Acute Care Hospital,General Acute Care Hospital,Hospitals,38.93112691116,-77.010896211168
1376593756,WASHINGTON CARDIOLOGY CENTER,"110 IRVING ST NW, ROOM # 4B-1, WASHINGTON, DC 20010",2028772700,Interventional Cardiology Physician,Internal Medicine,Allopathic & Osteopathic Physicians,38.931118708734,-77.012565000222
1366492977,LUCY WEBB HAYES NATIONAL TRAINING SCHOOL FOR DEACONESSES & MISSIONARIE,"5255 LOUGHBORO RD NW, WASHINGTON, DC 20016",2025374680,General Acute Care Hospital,General Acute Care Hospital,Hospitals,38.935795505294,-77.109291835731
1477503092,LUCY WEBB HAYES NATIONAL TRAINING SCHOOL FOR DEACONESSES & MISSIONARIE,"5255 LOUGHBORO RD NW, WASHINGTON, DC 20016",2025374680,Skilled Nursing Facility,Skilled Nursing Facility,Nursing & Custodial Care Facilities,38.935795505294,-77.109291835731
1659321180,LUCY WEBB HAYES NATIONAL TRAINING SCHOOL FOR DEACONSSES & MISSONARIES,"5255 LOUGHBORO RD NW, WASHINGTON, DC 20016",2025374680,Internal Medicine Physician,Internal Medicine,Allopathic & Osteopathic Physicians,38.935795505294,-77.109291835731
1467403949,LUCY WEBB HAYES NATIONAL TRAINING SCHOOL FOR DEACONSSES & MISSONARIES,"5255 LOUGHBORO RD NW, WASHINGTON, DC 20016",2025374680,Surgery Physician,Surgery,Allopathic & Osteopathic Physicians,38.935795505294,-77.109291835731
1285685693,LUCY WEBB HAYES NATIONAL TRAINING SCHOOL FOR DEACONSESS & MISSONARIES,"5255 LOUGHBORO RD NW, WASHINGTON, DC 20016",2025374680,Anatomic Pathology & Clinical Pathology Physician,Pathology,Allopathic & Osteopathic Physicians,38.935795505294,-77.109291835731
1740232354,"MEDSTAR PHARMACIES, INC.","106 IRVING ST NW, SUITE 1200, WASHINGTON, DC 20010",2028776309,Community/Retail Pharmacy,Pharmacy,Suppliers,38.931121413944,-77.012428386845
1134171770,"APPLE HEALTH CARE MEDICAL GROUP, INC.","1310 SOUTHERN AVE SE, WASHINGTON, DC 20032",2025746000,Emergency Medicine Physician,Emergency Medicine,Allopathic & Osteopathic Physicians,38.834714676807,-76.984090338685
1982657649,"SONUS-USA, INC","818 18TH ST NW, STE 245, WASHINGTON, DC 20006",2024664270,Audiologist-Hearing Aid Fitter,Audiologist-Hearing Aid Fitter,"Speech, Language and Hearing Service Providers",38.900458104372,-77.041772325507
1811940513,JD NURSING & MANAGEMENT SER,"6120 KANSAS AVE NW, WASHINGTON, DC 20011",2027227776,Home Health Agency,Home Health,Agencies,38.964138264116,-77.009474360968
1801849179,"1330 OPCO, L.L.C.","1330 MASSACHUSETTS AVENUE NW, WASHINGTON, DC 20005",2026283844,Skilled Nursing Facility,Skilled Nursing Facility,Nursing & Custodial Care Facilities,38.905137038074,-77.030658833922
1750334223,OB/GYN GROUP,"2440 M ST NW, SUITE 510, WASHINGTON, DC 20037",2028358363,Gynecology Physician,Obstetrics & Gynecology,Allopathic & Osteopathic Physicians,38.905202872095,-77.052192324572
1184677601,CENTERIMT WASHINGTON DC INC,"900 19TH ST NW, STE 250, WASHINGTON, DC 20006",2024668881,Physical Therapist,Physical Therapist,"Respiratory, Developmental, Rehabilitative and Restorative Service Providers",38.901397851728,-77.043535884019
1033163597,HOWARD UNIVERSITY,"2041 GEORGIA AVE NW, WASHINGTON, DC 20060",2028656100,Pediatrics Physician,Pediatrics,Allopathic & Osteopathic Physicians,38.918269998864,-77.021825068277
1669426730,AMEDISYS DISTRICT OF COLUMBIA LLC,"100 M ST SE STE 210, WASHINGTON, DC 20003",2027837892,Home Health Agency,Home Health,Agencies,38.876539513375,-77.005800618602
1871549949,WISCONSIN AVE PSYCHIATRIC CENTER INC,"4228 WISCONSIN AVE NW, WASHINGTON, DC 20016",2028855600,Psychiatry Physician,Psychiatry & Neurology,Allopathic & Osteopathic Physicians,38.943644452215,-77.077379513786
1063459949,RESOURCE PHARMACY INCORPORATED,"1160 VARNUM ST NE, WASHINGTON, DC 20017",2028322200,Pharmacist,Pharmacist,Pharmacy Service Providers,38.942923499442,-76.991108253954
1154368728,"ERGO SOLUTIONS, LLC","3700 N CAPITOL ST NW, WASHINGTON, DC 20011",2022616598,Social Worker,Social Worker,Behavioral Health & Social Service Providers,38.93767721666,-77.006951453863
1790723682,NOYA CHIROPRACTIC,"4708 WISCONSIN AVE, NW, SUITE 101, WASHINGTON, DC 20016",2022371399,Chiropractor,Chiropractor,Chiropractic Providers,38.951163152614,-77.08089634497
1932147980,MEDSTAR CLINICAL RESEARCH CENTER,"650 PENNSYLVANIA AVE SE, SUITE 50, WASHINGTON, DC 20003",2027875702,Research Study Specialist,Specialist,Other Service Providers,38.8852721,-76.9969902
1144268004,COMMUNITY CARE NURSING SERVICES OF DC,"6031 KANSAS AVE NW, SUITE 201, WASHINGTON, DC 20011",2025455040,Home Health Agency,Home Health,Agencies,38.963054573738,-77.010104901951
1780622142,PREMIER HEALTH SERVICES INC.,"7600 GEORGIA AVE NW, #323, WASHINGTON, DC 20012",2027233060,Home Infusion Agency,Home Infusion,Agencies,38.982108595294,-77.02661754712
1386682805,WASHINGTON DC VAMC,"820 CHESAPEAKE ST SE, WASHINGTON, DC 20032",8282573777,VA Clinic/Center,Clinic/Center,Ambulatory Health Care Facilities,38.829262522457,-76.993336024476
1861432676,"RIVERSIDE TREATMENT SERVICES,INC","4460 MACARTHUR BLVD NW, WASHINGTON, DC 20007",2023339355,Psychiatric Hospital,Psychiatric Hospital,Hospitals,38.907780577626,-77.083751004007
1336180736,"LOUIS E LEVITT, MD & MARC B DANZIGER, MD","1850 M ST NW, SUITE #750, WASHINGTON, DC 20036",2028352222,Specialist,Specialist,Other Service Providers,38.905598502887,-77.042584183007
1528009347,"WASHINGTON CARDIOVASCULAR SPECIALISTS, P.C.","106 IRVING STREET NW, #3200 N, WASHINGTON, DC 20010",2027267474,Cardiovascular Disease Physician,Internal Medicine,Allopathic & Osteopathic Physicians,38.931121413944,-77.012428386845
1548202252,JAMES A D'ORTA MD PC,"845 BLADENSBURG RD NE, WASHINGTON, DC 20002",6126597111,Urgent Care Clinic/Center,Clinic/Center,Ambulatory Health Care Facilities,38.901172130133,-76.982530830125
1588606115,"WASHINGTON CARDIOTHORACIC SURGERY ASSOC.,PLLC","2175 K ST NW, SUITE 300, WASHINGTON, DC 20037",2027759375,Thoracic Surgery (Cardiothoracic Vascular Surgery) Physician,Thoracic Surgery (Cardiothoracic Vascular Surgery),Allopathic & Osteopathic Physicians,38.902621509697,-77.048251152494
1811930647,"SURGICAL ANESTHESIA ASSOCIATES, PLLC","5255 LOUGHBORO RD NW, WASHINGTON, DC 20016",2022432280,Anesthesiology Physician,Anesthesiology,Allopathic & Osteopathic Physicians,38.935795505294,-77.109291835731
1881637619,WASHINGTON HOSPITAL CENTER CORP,"110 IRVING ST NW, 2A38, WASHINGTON, DC 20010",2028772848,Addiction Medicine (Psychiatry & Neurology) Physician,Psychiatry & Neurology,Allopathic & Osteopathic Physicians,38.931118708734,-77.012565000222
1518909340,WASHINGTON HOSPITAL CENTER CORP,"110 IRVING ST NW, 2A38, WASHINGTON, DC 20010",2008772848,Gastroenterology Physician,Internal Medicine,Allopathic & Osteopathic Physicians,38.931118708734,-77.012565000222
1427090257,WASHINGTON HOSPITAL CENTER CORP,"110 IRVING ST NW, 2A38, WASHINGTON, DC 20010",2028772848,Clinical Cardiac Electrophysiology Physician,Internal Medicine,Allopathic & Osteopathic Physicians,38.931118708734,-77.012565000222
1750324083,MEDICAL FACULTY ASSOCIATES INC,"2150 PENNSYLVANIA AVE NW, # G201, WASHINGTON, DC 20037",2027413600,Pharmacy,Pharmacy,Suppliers,38.901653229487,-77.047796217413
1417990581,"MEDICAL FACULTY ASSOCIATES, INC","2150 PENNSYLVANIA AVE NW, SUITE 10-409A, WASHINGTON, DC 20037",2027413350,Dermatology Physician,Dermatology,Allopathic & Osteopathic Physicians,38.901653229487,-77.047796217413
1700820297,WALTER REED ARMY MEDICAL CENTER,"6900 GEORGIA AVE NW, WASHINGTON, DC 20307",2027823858,Clinical Psychologist,Psychologist,Behavioral Health & Social Service Providers,38.975877329852,-77.026726607995
1548204167,"THOMAS M. LOUGHNEY, M.D., P.C.","3301 NEW MEXICO AVE NW, #202, WASHINGTON, DC 20016",2029663376,Gastroenterology Physician,Internal Medicine,Allopathic & Osteopathic Physicians,38.932948524519,-77.085443114713
1881639714,"COMMUNITY OF HOPE, INC","2155 CHAMPLAIN ST NW, WASHINGTON, DC 20009",2025409857,Mental Health Clinic/Center (Including Community Mental Health Center),Clinic/Center,Ambulatory Health Care Facilities,38.919391353507,-77.040537402644
1902841349,"FOXHALL PODIATRY ASSOCIATES, PC","3301 NEW MEXICO AVE NW, SUITE 228, WASHINGTON, DC 20016",2029664811,Podiatrist,Podiatrist,Podiatric Medicine & Surgery Service Providers,38.932948524519,-77.085443114713
1760428692,POF INC,"6323 GEORGIA AVE NW, SUITE 200, WASHINGTON, DC 20011",2022910126,Ambulatory Surgical Clinic/Center,Clinic/Center,Ambulatory Health Care Facilities,38.966419347739,-77.027502165547
1407892284,SAFEWAY INC,"1855 WISCONSIN AVE NW, WASHINGTON, DC 20007",2023336048,Pharmacy,Pharmacy,Suppliers,38.915836558522,-77.067765309512
1316983190,NAI SATURN EASTERN LLC,"3830 GEORGIA AVE NW, WASHINGTON, DC 20011",2027224067,Durable Medical Equipment & Medical Supplies,Durable Medical Equipment & Medical Supplies,Suppliers,38.937953994517,-77.024627484025
1306882188,NAI SATURN EASTERN LLC,"6500 PINEY BRANCH RD NW, WASHINGTON, DC 20012",2027235612,Durable Medical Equipment & Medical Supplies,Durable Medical Equipment & Medical Supplies,Suppliers,38.968708652924,-77.026099194219
1215973094,NAI SATURN EASTERN LLC,"1747 COLUMBIA RD NW, WASHINGTON, DC 20009",2026672080,Durable Medical Equipment & Medical Supplies,Durable Medical Equipment & Medical Supplies,Suppliers,38.923969681973,-77.04084505383
1033155635,NAI SATURN EASTERN LLC,"415 14TH ST SE, WASHINGTON, DC 20003",2025474350,Durable Medical Equipment & Medical Supplies,Durable Medical Equipment & Medical Supplies,Suppliers,38.88388299437,-76.985594327138
1942246541,NAI SATURN EASTERN LLC,"1601 MARYLAND AVE NE, WASHINGTON, DC 20002",2023986900,Durable Medical Equipment & Medical Supplies,Durable Medical Equipment & Medical Supplies,Suppliers,38.901337977104,-76.980293071583
1366488991,NAI SATURN EASTERN LLC,"2845 ALABAMA AVE SE, WASHINGTON, DC 20020",2025757527,Durable Medical Equipment & Medical Supplies,Durable Medical Equipment & Medical Supplies,Suppliers,38.859837062342,-76.9669442645
1275579807,NAI SATURN EASTERN LLC,"5545 CONNECTICUT AVE NW, WASHINGTON, DC 20015",2023640320,Durable Medical Equipment & Medical Supplies,Durable Medical Equipment & Medical Supplies,Suppliers,38.964073999165,-77.075011349798
1780611046,"SPORTS THERAPY AND REHABILITATION,INC","1112 16TH STREET NW, SUITE 200, WASHINGTON, DC 20036",2022231737,Physical Therapist,Physical Therapist,"Respiratory, Developmental, Rehabilitative and Restorative Service Providers",38.904020111161,-77.036610830676
1023045002,SAFEWAY INC,"514C RHODE ISLAND AVE NE, WASHINGTON, DC 20002",2026368643,Community/Retail Pharmacy,Pharmacy,Suppliers,38.920537746357,-76.99850178206
1811925878,JOHN F DOMBROWSKI MD PC,"3301 NEW MEXICO AVE, STE 346, NW WASHINGTON, DC 20016",2023624787,Interventional Pain Medicine Physician,Pain Medicine,Allopathic & Osteopathic Physicians,38.932948524519,-77.085443114713
1336177492,VOLUNTEERS OF AMERICA CHESAPEAKE INC,"945 G STREET NW, WASHINGTON, DC 20001",2028240460,Voluntary or Charitable Agency,Voluntary or Charitable,Agencies,38.89837350968,-77.024842932862
1770512758,"METRO MEDICAL ASSOCIATES,INC","7603 GEORGIA AVE NW, SUITE 304, WASHINGTON, DC 20012",2027265014,Family Medicine Physician,Family Medicine,Allopathic & Osteopathic Physicians,38.981996226089,-77.026467331264
1285663427,WASHINGTON ELECTROPHYSIOLOGY LLC,"106 IRVING ST NW, SUITE 420, WASHINGTON, DC 20010",2027226363,Clinical Cardiac Electrophysiology Physician,Internal Medicine,Allopathic & Osteopathic Physicians,38.931121413944,-77.012428386845
1902835028,"VASCULAR ACCESS CENTER OF WASHINGTON DC, LLC","1010 VERMONT AVE NW, SUITE 300, WASHINGTON, DC 20005",2028240620,Nephrology Physician,Internal Medicine,Allopathic & Osteopathic Physicians,38.902695980279,-77.033711911173
1750310918,"SPORTS AND SPINAL PHYSICAL THERAPY, INC.","2021 K ST NW, SUITE 500, WASHINGTON, DC 20006",2024637611,Physical Therapist,Physical Therapist,"Respiratory, Developmental, Rehabilitative and Restorative Service Providers",38.902585509594,-77.045299020768
1215966213,"LISACKAUFMAN,MD,ALLENT GREENLEE,MD,AND ELIZABETHPWHEATONMD,PC","1850 M ST NW STE 230, WASHINGTON, DC 20036",2028337051,Internal Medicine Physician,Internal Medicine,Allopathic & Osteopathic Physicians,38.905598502887,-77.042584183007
1063441905,WRAMC,"6900 GEORGIA AVE NW, WASHINGTON, DC 20307",5712312856,Military General Acute Care Hospital,Military Hospital,Hospitals,38.975877329852,-77.026726607995
1609805241,WRAMC,"6900 GEORGIA AVE NW, WASHINGTON, DC 20307",5712312856,Military General Acute Care Hospital,Military Hospital,Hospitals,38.975877329852,-77.026726607995
1558391599,"IMERSHEIN & BIRNKRANT, P.C.","2311 M ST NW, SUITE 304, WASHINGTON, DC 20037",2024664800,Gynecology Physician,Obstetrics & Gynecology,Allopathic & Osteopathic Physicians,38.905321509229,-77.050300505889
1669402491,"BAUMAN & STOLERU, M.D., P.C.","3553 16TH ST NW, WASHINGTON, DC 20010",2023878900,Ophthalmology Physician,Ophthalmology,Allopathic & Osteopathic Physicians,38.935881950378,-77.036374865064
1073543724,"DRS. ARLING & PATTERSON, P.C.","2440 M ST., NW, SUITE 817, WASHINGTON, DC 20037",2028335707,Internal Medicine Physician,Internal Medicine,Allopathic & Osteopathic Physicians,38.905202872095,-77.052192324572
1669402376,ALBERTA M VALLIS MD PC,"1846 PARK ROAD NW, WASHINIGTON, DC 20010",2022345713,Child & Adolescent Psychiatry Physician,Psychiatry & Neurology,Allopathic & Osteopathic Physicians,38.932278912116,-77.042721415885
1710919501,"EASTON L. MANDERSON, M.D., F.A.C.S., PC","1140 VARNUM ST NE STE 108, WASHINGTON, DC 20017",2025265300,Orthopaedic Surgery Physician,Orthopaedic Surgery,Allopathic & Osteopathic Physicians,38.942923499458,-76.991528185926
1912939703,CHILDREN'S HOSPITAL,"111 MICHIGAN AVE NW, WASHINGTON, DC 20010",2024765000,End-Stage Renal Disease (ESRD) Treatment Clinic/Center,Clinic/Center,Ambulatory Health Care Facilities,38.926327503583,-77.01246633165
1932130747,"NATIONAL VISION, INC.","1100 CONNECTICUT AVE NW, WASHINGTON, DC 20036",2022231050,Optometrist,Optometrist,Eye and Vision Services Providers,38.903771776,-77.040108642935
1265465876,UNIVERSAL HEALTHCARE,"3230 PENNSYLVANIA AVE SE, SUITE 213, WASHINGTON, DC 20020",2025831181,Point of Service,Point of Service,Managed Care Organizations,38.869104173895,-76.95976835157
1396778072,NEURODIAGNOSTIC ASSOCIATES PC,"106 IRVING STREET NW, SUITE 2600, WASH, DC 20010",2028293726,Neurology Physician,Psychiatry & Neurology,Allopathic & Osteopathic Physicians,38.931121413944,-77.012428386845
1801829155,GIANT OF MARYLAND LLC,"1414 8TH ST NW, WASHINGTON, DC 20001",2026280577,Pharmacy,Pharmacy,Suppliers,38.908762423032,-77.023016339501
1629001979,GIANT OF MARYLAND LLC,"1050 BRENTWOOD RD NE, WASHINGTON, DC 20018",2022813901,Pharmacy,Pharmacy,Suppliers,38.918965111663,-76.991849618995
1538192885,GIANT OF MARYLAND LLC,"1345 PARK RD NW, WASHINGTON, DC 20010",2027771078,Durable Medical Equipment & Medical Supplies,Durable Medical Equipment & Medical Supplies,Suppliers,38.930963744673,-77.030945154034
1255365268,"LEWIS MARSHALL MD & ASSOCIATES, PLLC","1160 VARNUM ST NE, SUITE 317, WASHINGTON, DC 20017",2025291961,Infectious Disease Physician,Internal Medicine,Allopathic & Osteopathic Physicians,38.942923499442,-76.991108253954
1477587004,ALPHA DRUGS LLC,"1638 R ST NW STE 1, WASHINGTON, DC 20009",2022657979,Pharmacist,Pharmacist,Pharmacy Service Providers,38.912550915889,-77.03729549968
1053345744,TRIUMPH MEDICAL SUPPLY SERVICES,"1090 VERMONT AVE NW, SUITE 820, WASHINGTON, DC 20005",2023265252,Durable Medical Equipment & Medical Supplies,Durable Medical Equipment & Medical Supplies,Suppliers,38.903616937456,-77.033225594223
1396778361,MCCLENDON CENTER,"1338 N CAPITOL ST NW, WASHINGTON, DC 20002",2027450073,Community/Behavioral Health Agency,Community/Behavioral Health,Agencies,38.909229878255,-77.009183344322
1598799124,"IMMACULATE HEALTH CARE SERVICES,INC","2512 24TH ST NE, WASHINGTON, DC 20018",2028328340,Home Health Agency,Home Health,Agencies,38.922613255945,-76.97242213477
1134152135,"GILEAD FANILY SERVICES GROUP, LLC","930 KENNEDY ST NW, SUITE 350, WASHINGTON, DC 20011",2027231515,Clinical Social Worker,Social Worker,Behavioral Health & Social Service Providers,38.956207391227,-77.026295508057
1033143235,GRANT PARK NURSING HOME LIMITED PARTNERSHIP,"5000 NANNIE HELEN BURROUGHS AVE NE, WASHINGTON, DC 20019",2023997504,Skilled Nursing Facility,Skilled Nursing Facility,Nursing & Custodial Care Facilities,38.898400506126,-76.929512118379
1588689517,WALTER REED ARMY MEDICAL CENTER,"6900 GEORGIA AVE NW, ATTN: MCHL-HPM, WASHINGTON, DC 20307",2027827942,Military Hospital,Military Hospital,Hospitals,38.975877329852,-77.026726607995
1407872575,COMMUNITY CONNECTIONS INC,"801 PENNSYLVANIA AVE SE STE 201, WASHINGTON, DC 20003",2025461512,Addiction (Substance Use Disorder) Counselor,Counselor,Behavioral Health & Social Service Providers,38.883766806906,-76.994408956159
1013933910,SPECTERA,"UNITED OPTICAL, 1127 15TH STREET, NW, WASHINGTON, DC 20005",2023310513,Eyewear Supplier,Eyewear Supplier,Suppliers,38.9045275,-77.03421159999999
1336165307,"METROPOLITAN MEDICAL ASSOCIATES, P.C.","1208 CRITTENDEN ST NW, WASHINGTON, DC 20011",2028822565,Addiction Medicine (Internal Medicine) Physician,Internal Medicine,Allopathic & Osteopathic Physicians,38.947131094864,-77.027087301605
1437175684,WASHINGTON NATIONAL EYE CENTER,"110 IRVING STREET, NW, SUITE 1A-19, WASHINGTON, DC 20010",2028775329,Ophthalmology Physician,Ophthalmology,Allopathic & Osteopathic Physicians,38.931118708734,-77.012565000222
1518983139,SOUTH POTOMAC BONE ASSESSMENT CENTER,"1328 SOUTHERN AVE SE, SUITE 210, WASHINGTON, DC 20032",2025740540,Radiology Clinic/Center,Clinic/Center,Ambulatory Health Care Facilities,38.834978689747,-76.983751095579
1396762282,"LENOX MEDICAL SUPPLY SERVICES, LLC","1712 14TH ST NW, SUITE 3-2, WASHINGTON, DC 20009",2023871960,Durable Medical Equipment & Medical Supplies,Durable Medical Equipment & Medical Supplies,Suppliers,38.913039552153,-77.032025340626
1104843127,"CARDIOLOGY ASSOCIATES, PC","106 IRVING ST NW, SUITE 2700N, WASHINGTON, DC 20010",2027235524,Specialist,Specialist,Other Service Providers,38.931121413944,-77.012428386845
1437176450,"CARDIOLOGY ASSOCIATES, PC","2131 K ST NW, STE 800, WASHINGTON, DC 20037",2028229356,Specialist,Specialist,Other Service Providers,38.902621509663,-77.047339208283
1285651059,"BRAUN DERMATOLOGY & SKIN CANCER CENTER, P.C.","3301 NEW MEXICO AVE NW STE 301, WASHINGTON, DC 20016",2022937618,MOHS-Micrographic Surgery Physician,Dermatology,Allopathic & Osteopathic Physicians,38.932948524519,-77.085443114713
1154349025,WASHINGTON ENT GROUP PLLC,"2440 M ST NW, SUITE# 620, WASHINGTON, DC 20037",2027855000,Otolaryngology/Facial Plastic Surgery Physician,Otolaryngology,Allopathic & Osteopathic Physicians,38.905202872095,-77.052192324572
1528087723,GIANNINI GRAY DENTAL PARTNERS PC,"4801 WISCONSIN AVE NW STE 200, WASHINGTON, DC 20016",2022444111,Dental Clinic/Center,Clinic/Center,Ambulatory Health Care Facilities,38.952138802164,-77.081244506274
1184643140,"EUGENE C. GADAIRE, D.D.S.","2440 M ST NW, SUITE 601, WASHINGTON, DC 20037",2023311554,General Practice Dentistry,Dentist,Dental Providers,38.905202872095,-77.052192324572
1265452635,WASHINGTON HOSPITAL CENTER CORP,"110 IRVING ST NW, WASHINGTON, DC 20010",2028777575,Anesthesiology Physician,Anesthesiology,Allopathic & Osteopathic Physicians,38.931118708734,-77.012565000222
1578584306,EMERALD MEDICAL SERVICES LLC,"4211 9TH ST NW, SUITE 1, WASHINGTON, DC 20011",2027228877,Durable Medical Equipment & Medical Supplies,Durable Medical Equipment & Medical Supplies,Suppliers,38.942041884877,-77.025002746271
1720009426,"CARDIOLOGY ASSOCIATES, PC","106 IRVING ST NW, SUITE 4800N, WASHINGTON, DC 20010",2027265484,Specialist,Specialist,Other Service Providers,38.931121413944,-77.012428386845
1750302840,WASHINGTON INTERNAL MEDICINE GROUP,"730 24TH ST NW, SUITE 7, WASHINGTON, DC 20037",2023385050,Internal Medicine Physician,Internal Medicine,Allopathic & Osteopathic Physicians,38.898730467885,-77.051505821005
1215958566,JAMES C COBEY MD PC,"106 IRVING ST NW, SUITE 420S, WASHINGTON, DC 20010",2028777111,Orthopaedic Surgery Physician,Orthopaedic Surgery,Allopathic & Osteopathic Physicians,38.931121413944,-77.012428386845
1790706935,CAPITAL HOSPICE,"5225 WISCONSIN AVE NW STE 503, WASHINGTON, DC 20015",2022448300,Community Based Hospice Care Agency,"Hospice Care, Community Based",Agencies,38.958105659501,-77.084286074745
1275554453,"WILLIAM C. SANCHEZ, M.D., P.C.","2232 Q ST NW, WASHINGTON, DC 20008",2023287200,Adult Medicine Physician,Family Medicine,Allopathic & Osteopathic Physicians,38.911065916645,-77.049510104748
1114949039,CHARTERED MEDICAL PHARMACY,"3924 MINNESOTA AVE NE, WASHINGTON, DC 20019",2026277809,Pharmacy,Pharmacy,Suppliers,38.89371733282,-76.950294574991
1679596035,"DMV FOOT AND ANKLE, P.C.","106 IRVING ST NW STE 402, WASHINGTON, DC 20010",2027261800,Foot & Ankle Surgery Podiatrist,Podiatrist,Podiatric Medicine & Surgery Service Providers,38.931121413944,-77.012428386845
1407870124,WASHINGTON HOSPITAL CENTER CORP,"110 IRVING ST NW, ATTN MEDICAL AFFAIRS, WASHINGTON, DC 20010",2028775284,Orthopaedic Surgery Physician,Orthopaedic Surgery,Allopathic & Osteopathic Physicians,38.931118708734,-77.012565000222
1265456693,WASHINGTON HOSPITAL CENTER CORP,"110 IRVING ST NW, WASHINGTON, DC 20010",2028775284,General Acute Care Hospital,General Acute Care Hospital,Hospitals,38.931118708734,-77.012565000222
1639193279,"FREE ADVICE, INC","508 H ST NE, 2ND. FLOOR, WASHINGTON, DC 20002",2025460078,Mental Health Counselor,Counselor,Behavioral Health & Social Service Providers,38.900263508349,-76.999358053283
1609890904,WASHINGTON HOSPITAL CENTER CORP,"110 IRVING ST NW, ATTN: PHYSICIANS BILLING, WASHINGTON, DC 20010",3012095484,General Acute Care Hospital,General Acute Care Hospital,Hospitals,38.931118708734,-77.012565000222
1184638959,WASHINGTON HOSPITAL CENTER CORP,"110 IRVING ST NW, ATTN: PHYSICIANS BILLING, WASHINGTON, DC 20010",2028775284,General Acute Care Hospital,General Acute Care Hospital,Hospitals,38.931118708734,-77.012565000222
1992719769,WASHINGTON HOSPITAL CENTER CORP,"110 IRVING ST NW, ATTN: PHYSICIANS BILLING, WASHINGTON, DC 20010",3012095484,General Acute Care Hospital,General Acute Care Hospital,Hospitals,38.931118708734,-77.012565000222
1801800677,WASHINGTON HOSPITAL CENTER CORP,"110 IRVING ST NW, WASHINGTON, DC 20010",3012095484,General Acute Care Hospital,General Acute Care Hospital,Hospitals,38.931118708734,-77.012565000222
1710991583,WASHINGTON HOSPITAL CENTER CORP,"110 IRVING ST NW, ATTN: PHYSICIANS BILLING, WASHINGTON, DC 20010",3012095484,General Acute Care Hospital,General Acute Care Hospital,Hospitals,38.931118708734,-77.012565000222
1629082490,WASHINGTON HOSPITAL CENTER CORP,"110 IRVING ST NW, ATTN: PHYSICIANS BILLING, WASHINGTON, DC 20010",3012095484,General Acute Care Hospital,General Acute Care Hospital,Hospitals,38.931118708734,-77.012565000222
1538173307,WASHINGTON HOSPITAL CENTER CORP,"110 IRVING ST NW, ATTN: PHYSICIANS BILLING, WASHINGTON, DC 20010",3012095484,General Acute Care Hospital,General Acute Care Hospital,Hospitals,38.931118708734,-77.012565000222
1578577854,GENESIS HEALTHCARE LLC,"1875 I ST NW, SUITE 576, WASHINGTON, DC 20006",2028573281,Durable Medical Equipment & Medical Supplies,Durable Medical Equipment & Medical Supplies,Suppliers,38.901393405083,-77.042992305284
1679588156,EASTER SEALS DC MD VA,"2800 13TH ST NW, WASHINGTON, DC 20009",2023874434,Physical Therapist,Physical Therapist,"Respiratory, Developmental, Rehabilitative and Restorative Service Providers",38.925805706583,-77.029784093286
1093721615,HOWARD UNIVERSITY HOSPITAL,"2041 GEORGIA AVE NW, WASHINGTON, DC 20060",2028657740,Home Health Agency,Home Health,Agencies,38.918269998864,-77.021825068277
1396752440,DC PAIN AND REHAB,"2041 MARTIN LUTHER KING JR AVE SE, SUITE E, WASHINGTON, DC 20020",2026106666,Chiropractor,Chiropractor,Chiropractic Providers,38.865663046859,-76.989488950147
1235146366,"LH PSYCHOLOGICAL-COUNSELING-EDUCATIONAL-SERVICES, INC.","3502 18TH ST NE, WASHINGTON, DC 20018",2025063575,Clinic/Center,Clinic/Center,Ambulatory Health Care Facilities,38.933181397324,-76.979691906992
1720095615,WASHINGTON HOSPITAL CENTER CORP,"110 IRVING ST NW, ATTN: PHYSICIANS BILLING DEPT., WASHINGTON, DC 20010",3012095484,General Acute Care Hospital,General Acute Care Hospital,Hospitals,38.931118708734,-77.012565000222
1184632556,DOCTORS GUTTENBERG AND EMERY PC,"2021 K STREET NW, SUITE 200, WASHINGTON, DC 20006",2024663323,Oral & Maxillofacial Surgery (D.M.D.),Oral & Maxillofacial Surgery,Allopathic & Osteopathic Physicians,38.902585509594,-77.045299020768
1679581573,DANIEL HACK DDS PC,"4115 CONNECTICUT AVE NW, WASHINGTON, DC 20008",2029660543,Dentist,Dentist,Dental Providers,38.942243051025,-77.062312059437
1205844032,"GUH KIDS MOBILE MEDICAL CLINIC PROGRAM, LLC","3800 RESERVOIR RD NW, WASHINGTON, DC 20007",2024440075,Pediatrics Physician,Pediatrics,Allopathic & Osteopathic Physicians,38.912544697661,-77.074941256453
1083622153,DR. SHELDON I. LAPS,"1234 19TH ST NW, SUITE 610, WASHINGTON, DC 20036",2022239020,Foot Surgery Podiatrist,Podiatrist,Podiatric Medicine & Surgery Service Providers,38.906741600446,-77.043521011297
1093724619,HARRY GILL MD PHD PLLC,"4501 CONNECTICUT AVE NW, STE 1011, WASHINGTON, DC 20008",2023604787,Psychiatry Physician,Psychiatry & Neurology,Allopathic & Osteopathic Physicians,38.947972185824,-77.065639696459
1093724700,"WASHINGTON REGIONAL CARDIAC SURGERY, PC","110 IRVING ST NW, SUITE 1E3, WASHINGTON, DC 20010",2022911430,Thoracic Surgery (Cardiothoracic Vascular Surgery) Physician,Thoracic Surgery (Cardiothoracic Vascular Surgery),Allopathic & Osteopathic Physicians,38.931118708734,-77.012565000222
1497764013,CARLOS H POWERS DDS PC,"1334 G STREET SE, WASHINGTON, DC 20003",2026754544,Dentist,Dentist,Dental Providers,38.881313127304,-76.987029970321
1730198755,MEDSTAR GEORGETOWN MEDICAL CENTER,"3800 RESERVOIR RD NW, WASHINGTON, DC 20007",8888961400,Clinical Medical Laboratory,Clinical Medical Laboratory,Laboratories,38.912544697661,-77.074941256453
1245249341,"ANDREW M ORCHIN DDS, PC","5301 WISCONSIN AVE. N.W., #200, WASHINGTON, DC 20015",2026865100,Orthodontics and Dentofacial Orthopedics Dentistry,Dentist,Dental Providers,38.95911336788,-77.084802712021
1508877093,GOOD CARE PHARMACY INC,"2910 MARTIN LUTHER KING JR AVE SE, WASHINGTON, DC 20032",2025614343,Pharmacy,Pharmacy,Suppliers,38.845796850825,-76.996774488289
1336150978,SIERRA INTERNATIONAL PHARMACAUTICAL,"650 PENNSYLVANIA AVE SE, WASHINGTON, DC 20003",2025480008,Pharmacy,Pharmacy,Suppliers,38.8852721,-76.9969902
1780695973,"PULMONARY CRITICAL CARE ASSOCIATES, PC","1160 VARNUM ST NE, SUITE 214, WASHINGTON, DC 20017",2025265491,Pulmonary Disease Physician,Internal Medicine,Allopathic & Osteopathic Physicians,38.942923499442,-76.991108253954
1487666152,"DC MEDICAL SUPPLY, INC","5922 GEORGIA AVE NW, WASHINGTON, DC 20011",2027224721,Durable Medical Equipment & Medical Supplies,Durable Medical Equipment & Medical Supplies,Suppliers,38.961746371306,-77.028043106985
1083626451,"WASHINGTON GASTROENTEROLOGY, PC","106 IRVING ST NW, STE 205, WASHINGTON, DC 20010",2028290170,Gastroenterology Physician,Internal Medicine,Allopathic & Osteopathic Physicians,38.931121413944,-77.012428386845
1497768519,WASHINGTON MEDICAL GROUP PC,"1327 18TH ST NW, WASHINGTON, DC 20036",2027852400,Psychologist,Psychologist,Behavioral Health & Social Service Providers,38.907743431415,-77.041605618035
1457464299,INSTITUTE FOR LIFE ENRICHMENT PC,"7852 16TH STREET NW, WASHINGTON, DC 20012",2022915009,Psychologist,Psychologist,Behavioral Health & Social Service Providers,38.986812146206,-77.036411017641
1649383290,"CAPITAL CARDIOLOGY CONSULTANTS, P.C.","1160 VARNUM ST NE STE 100, WASHINGTON, DC 20017",2028321800,Cardiovascular Disease Physician,Internal Medicine,Allopathic & Osteopathic Physicians,38.942923499442,-76.991108253954
1659485985,NATIONAL REHABILITATION HOSPITAL INC,"102 IRVING ST NW, WASHINGTON, DC 20010",2028771177,Physical Medicine & Rehabilitation Physician,Physical Medicine & Rehabilitation,Allopathic & Osteopathic Physicians,38.931124119155,-77.012291773469
1477666899,"F.A.C.T.S.,PLLC","650 PENNSYLVANIA AVE SE, SUITE 440, WASHINGTON, DC 20003",2025445440,Clinical Psychologist,Psychologist,Behavioral Health & Social Service Providers,38.88543749999999,-76.9970072
1407960248,"MEDSTAR HEALTH VISITING NURSE ASSOCIATION, INC.","4201 CONNECTICUT AVE NW STE 200, WASHINGTON, DC 20008",2028826988,Home Health Agency,Home Health,Agencies,38.943230030537,-77.06288395963
1407960420,CHESTER M STEIN DDS PC,"1712 I ST NW, SUITE 202, WASHINGTON, DC 20006",2026593500,Periodontics,Dentist,Dental Providers,38.901275334408,-77.039777514357
1477667020,ALI ALEM DENTAL CLINIC,"2440 M STREET NW, #608, WASHINGTON, DC 20037",2028223785,Dentist,Dentist,Dental Providers,38.905202872095,-77.052192324572
1871608166,SUPER PHARMACY LLC,"1019 H ST NE, WASHINGTON, DC 20002",2023880050,Community/Retail Pharmacy,Pharmacy,Suppliers,38.900146891132,-76.992393427375
1033224035,"ARJANG RAOUFINIA, DDS, PC","2311 M ST NW STE 405, WASHINGTON, DC 20037",2025592700,General Practice Dentistry,Dentist,Dental Providers,38.905321509229,-77.050300505889
1356456289,DCA HADLEY SNF LLC,"4601 MLK JR AVENUE SW, WASHINGTON, DC 20032",2027414170,Skilled Nursing Facility,Skilled Nursing Facility,Nursing & Custodial Care Facilities,38.824663422771,-77.012428927123
1245346311,KENYA COLEMAN,"1050 CONNECTICUT AVE NW, 10TH FLOOR, WASHINGTON, DC 20036",2027724162,Case Management Agency,Case Management,Agencies,38.903130269959,-77.039740962038
1609983022,WRAMC,"6900 GEORGIA AVE NW, WASHINGTON, DC 20307",5712312856,Military General Acute Care Hospital,Military Hospital,Hospitals,38.975877329852,-77.026726607995
1881701217,WASHINGTON HOSPITAL CENTER CORPORATION,"110 IRVING ST NW, WASHINGTON, DC 20010",4109332687,Psychiatric Hospital,Psychiatric Hospital,Hospitals,38.931118708734,-77.012565000222
1083722763,"CAPITOL DIALYSIS, LLC","140 Q ST NE, SUITE 100, WASHINGTON, DC 20002",2026369411,End-Stage Renal Disease (ESRD) Treatment Clinic/Center,Clinic/Center,Ambulatory Health Care Facilities,38.911171506355,-77.004863347649
1548378235,MEDSTAR WASHINGTON HOSPITAL CENTER,"110 IRVING ST NW, WASHINGTON, DC 20010",2028775989,General Acute Care Hospital,General Acute Care Hospital,Hospitals,38.931118708734,-77.012565000222
1205944915,"CAPITOL DIALYSIS, LLC","3333 WISCONSIN AVE NW, WASHINGTON, DC 20016",2023621511,End-Stage Renal Disease (ESRD) Treatment Clinic/Center,Clinic/Center,Ambulatory Health Care Facilities,38.933885923161,-77.072337535035
1801904685,"WASHINGTON PSYCHOLOGICAL CENTER, PC","5225 WISCONSIN AVE NW, SUITE 513, WASHINGTON, DC 20015",2023641575,Clinical Social Worker,Social Worker,Behavioral Health & Social Service Providers,38.958105659501,-77.084286074745
1639288152,RITE AID OF WASHINGTON DC INC,"801 H STREET NORTHEAST, WASHINGTON, DC 20002",2026752555,Durable Medical Equipment & Medical Supplies,Durable Medical Equipment & Medical Supplies,Suppliers,38.900148916809,-76.994888095977
1548379068,RITE AID OF WASHINGTON DC INC,"3301 NEW MEXICO AVENUE NORTHWEST, WASHINGTON, DC 20016",2029664900,Durable Medical Equipment & Medical Supplies,Durable Medical Equipment & Medical Supplies,Suppliers,38.932948524519,-77.085443114713
1225147796,"PROCARE PHARMACY, L.L.C.","1601 17TH ST NW, WASHINGTON, DC 20009",8668133603,Community/Retail Pharmacy,Pharmacy,Suppliers,38.911180507604,-77.038412070427
1669580460,THE WASHINGTON INSTITUTE FOR MOUTH & FACE & JAW SURGERY,"2021 K STREET NW, SUITE 200, WASHINGTON, DC 20006",2024663323,Oral and Maxillofacial Surgery (Dentist),Dentist,Dental Providers,38.902585509594,-77.045299020768
1790893519,OSEKRE INTERNATIONAL ENTERPRISE,"4008 12TH STREET NE, WASHINGTON, DC 20017",2023095215,Social Worker,Social Worker,Behavioral Health & Social Service Providers,38.938882881813,-76.990305879192
1598873317,LAKE ARBOR DENTAL ASSOC,"411 8TH ST SE, WASHINGTON, DC 20003",2025470900,Dentist,Dentist,Dental Providers,38.883587817201,-76.995048823913
1902915424,RITE AID OF WASHINGTON DC INC,"1815 CONNECTICUT AVENUE NORTHWEST, UNIVERSAL BUILDING, WASHINGTON, DC 20009",2023321718,Durable Medical Equipment & Medical Supplies,Durable Medical Equipment & Medical Supplies,Suppliers,38.914900116737,-77.04611507806
1720197247,RITE AID OF WASHINGTON DC INC,"5600 GEORGIA AVENUE NORTHWEST, WASHINGTON, DC 20011",2027225252,Durable Medical Equipment & Medical Supplies,Durable Medical Equipment & Medical Supplies,Suppliers,38.957335423737,-77.028256944592
1457460974,RITE AID OF WASHINGTON DC INC,"4635 SOUTH CAPITOL STREET SOUTHWEST, WASHINGTON, DC 20032",2025610939,Durable Medical Equipment & Medical Supplies,Durable Medical Equipment & Medical Supplies,Suppliers,38.822277927932,-77.002806104958
1366551889,RITE AID OF WASHINGTON DC INC,"1401 RHODE ISLAND AVENUE NORTHEAST, WASHINGTON, DC 20018",2026363648,Durable Medical Equipment & Medical Supplies,Durable Medical Equipment & Medical Supplies,Suppliers,38.924551162316,-76.985270681624
1568571644,"IAN H BEISER, DPM, PC","1145 19TH ST NW, #203, WASHINGTON, DC 20036",2028339109,Podiatrist,Podiatrist,Podiatric Medicine & Surgery Service Providers,38.904609776957,-77.04338007618
1023127008,RITE AID OF WASHINGTON DC INC,"1306 U STREET NORTHWEST, WASHINGTON, DC 20009",2023288761,Durable Medical Equipment & Medical Supplies,Durable Medical Equipment & Medical Supplies,Suppliers,38.916942914725,-77.029828042834
1265542070,STEP-BY-STEP PEDIATRIC AND ABA SERVICES,"4339 BOWEN RD SE STE B01, WASHINGTON, DC 20019",2028278717,Behavior Analyst,Behavior Analyst,Behavioral Health & Social Service Providers,38.873187372821,-76.936078435301
1508976606,FOOT SPECIALISTS,"1328 SOUTHERN AVE SE #200, WASHINGTON, DC 20032",2025623338,Podiatrist,Podiatrist,Podiatric Medicine & Surgery Service Providers,38.834978689747,-76.983751095579
1700998879,COLUMBIA FERTILLITY ASSOCIATES,"2440 M ST NW STE 401, WASHINGTON, DC 20037",2022232230,Specialist,Specialist,Other Service Providers,38.905202872095,-77.052192324572
1386756617,"DC SMILES DENTISTRY, PC","3401 GEORGIA AVE NW, WASHINGTON, DC 20010",2028295437,General Practice Dentistry,Dentist,Dental Providers,38.932102140003,-77.023597094327
1255442323,"BEHAVIORAL HEALTH AND SUBSTANCE ABUSE NETWORK, INC.","600 W ST NE, WASHINGTON, DC 20002",3016132750,Clinical Social Worker,Social Worker,Behavioral Health & Social Service Providers,38.919629709245,-76.998430714414
1306957907,VA MEDICAL CENTER,"50 IRVING ST NW, WASHINGTON, DC 20422",2027458000,Psychiatric Hospital Unit,Psychiatric Unit,Hospital Units,38.93112691116,-77.010896211168
1790897999,CAMERON AND COMPANY,"1354 D ST NE, WASHINGTON, DC 20002",2025436542,Clinical Social Worker,Social Worker,Behavioral Health & Social Service Providers,38.894836508987,-76.987098311808
1346351178,CAPNA HEALTHCARE LLC,"747 ALABAMA AVE SE, SUITE 2, WASHINGTON, DC 20032",2025630100,Pediatrics Physician,Pediatrics,Allopathic & Osteopathic Physicians,38.843564795007,-76.994594285087
1689785347,BELTWAY NURSING SERVICES LLC,"7412 GEORGIA AVE NW, SUITE # 3, WASHINGTON, DC 20012",2025419500,Home Health Agency,Home Health,Agencies,38.979655118913,-77.026541050252
1265544902,VETERANS AFFAIRS MEDICAL CENTER,"50 IRVING ST NW, WASHINGTON, DC 20422",2027458000,Military Hospital,Military Hospital,Hospitals,38.93112691116,-77.010896211168
1972615656,"PROVIDENCE CARDIOLOGY ASSOCIATES, PC","1150 VARNUM ST NE, PROVIDENCE HOSPITAL, WASHINGTON, DC 20017",2022697118,Cardiovascular Disease Physician,Internal Medicine,Allopathic & Osteopathic Physicians,38.94292349945,-76.99131821994
1730290883,"MAXIM HEALTHCARE SERVICES, INC.","1420 K ST NW STE 1000, WASHINGTON, DC 20005",2025456980,Home Health Agency,Home Health,Agencies,38.902461917738,-77.03234141256
1114038296,VITAS HEALTHCARE CORPORATION ATLANTIC,"1200 1ST ST NE, SUITE 320, WASHINGTON, DC 20002",2024145400,Community Based Hospice Care Agency,"Hospice Care, Community Based",Agencies,38.905699507499,-77.005956841967
1003918129,"VA MEDICAL CENTER,WASHINGTON,D.C.","50 IRVING ST NW, WASHINGTON, DC 20422",2027458113,Military General Acute Care Hospital,Military Hospital,Hospitals,38.93112691116,-77.010896211168
1720180276,EYE ONE SURGICAL ASSOC,"3800 RESERVOIR RD NW, PHC BLDG #GL017, WASHINGTON, DC 20007",2023390001,Ophthalmology Physician,Ophthalmology,Allopathic & Osteopathic Physicians,38.912544697661,-77.074941256453
1861595092,VICTOR E NAVA,"50 IRVING ST NW ATTN DR VICTOR NAVA, PATHOLOGY AND LABORATORY MEDICINE, WASHINGTON, DC 20422",2027458000,General Acute Care Hospital,General Acute Care Hospital,Hospitals,38.93112691116,-77.010896211168
1588768691,MARGARET A BYRNE MD PC,"2440 M ST, #501, WASHINGTON, DC 20037",2028330048,Gynecology Physician,Obstetrics & Gynecology,Allopathic & Osteopathic Physicians,38.905202872095,-77.052192324572
1780788752,"DISTRICT OF COLUMBIA CVS PHARMACY, L.L.C.","5550 CONNECTICUT AVE NW, WASHINGTON, DC 20015",2029666600,Community/Retail Pharmacy,Pharmacy,Suppliers,38.964246168274,-77.07527301944
1225132293,"DISTRICT OF COLUMBIA CVS PHARMACY, L.L.C.","2724 MARION BARRY AVE SE, WASHINGTON, DC 20020",2025824800,Durable Medical Equipment & Medical Supplies,Durable Medical Equipment & Medical Supplies,Suppliers,38.860408,-76.967776
1689778656,"DISTRICT OF COLUMBIA CVS PHARMACY, L.L.C.","500 12TH ST SE, WASHINGTON, DC 20003",2025431555,Community/Retail Pharmacy,Pharmacy,Suppliers,38.882788406959,-76.990171496374
1497859466,"DISTRICT OF COLUMBIA CVS PHARMACY, L.L.C.","6514 GEORGIA AVE NW, WASHINGTON, DC 20012",2028295234,Community/Retail Pharmacy,Pharmacy,Suppliers,38.969156077838,-77.027407728713
1578667341,"BIO-MEDICAL APPLICATIONS OF ANACOSTIA, INC.","3929 MINNESOTA AVE NE, WASHINGTON, DC 20019",2023972700,End-Stage Renal Disease (ESRD) Treatment Clinic/Center,Clinic/Center,Ambulatory Health Care Facilities,38.894031023479,-76.949893141952
1114021185,"DISTRICT OF COLUMBIA CVS PHARMACY, L.L.C.","4859 MACARTHUR BLVD NW, WASHINGTON, DC 20007",2029656548,Community/Retail Pharmacy,Pharmacy,Suppliers,38.916860210934,-77.095935321971
1023112091,"DISTRICT OF COLUMBIA CVS PHARMACY, L.L.C.","4555 WISCONSIN AVE NW, WASHINGTON, DC 20016",2025371459,Community/Retail Pharmacy,Pharmacy,Suppliers,38.949081183604,-77.080188780639
1295839264,"DISTRICT OF COLUMBIA CVS PHARMACY, L.L.C.","1418 P ST NW, WASHINGTON, DC 20005",2029395735,Community/Retail Pharmacy,Pharmacy,Suppliers,38.909597657988,-77.032740748898
1013011089,DISTRICT OF COLUMBIA CVS PHARMACY LLC,"1100 NEW JERSEY AVE SE, WASHINGTON, DC 20003",2024882364,Community/Retail Pharmacy,Pharmacy,Suppliers,38.877484857216,-77.004452713283
1861596736,"BIO-MEDICAL APPLICATIONS OF CAPITOL HILL, INC.","900 M ST SE, WASHINGTON, DC 20003",2025472880,End-Stage Renal Disease (ESRD) Treatment Clinic/Center,Clinic/Center,Ambulatory Health Care Facilities,38.876530512926,-76.993695622381
1740384510,"BIO-MEDICAL APPLICATIONS OF NORTHEAST D.C., INC.","1140 VARNUM ST NE STE 105, WASHINGTON, DC 20017",2029208240,End-Stage Renal Disease (ESRD) Treatment Clinic/Center,Clinic/Center,Ambulatory Health Care Facilities,38.942923499458,-76.991528185926
1407950470,DISTRICT OF COLUMBIA CVS PHARMACY LLC,"3327 CONNECTICUT AVE NW, WASHINGTON, DC 20008",2029667210,Durable Medical Equipment & Medical Supplies,Durable Medical Equipment & Medical Supplies,Suppliers,38.934173506365,-77.057621676876
1043314016,"DISTRICT OF COLUMBIA CVS PHARMACY, L.L.C.","4851 MASSACHUSETTS AVE NW, WASHINGTON, DC 20016",2023639554,Community/Retail Pharmacy,Pharmacy,Suppliers,38.945180815525,-77.095750406412
1952405920,"DISTRICT OF COLUMBIA CVS PHARMACY, L.L.C.","320 40TH ST NE, WASHINGTON, DC 20019",2023962331,Community/Retail Pharmacy,Pharmacy,Suppliers,38.893028443471,-76.947258826133
1306940374,"DISTRICT OF COLUMBIA CVS PHARMACY, L.L.C.","1637 P ST NW, WASHINGTON, DC 20036",2023281250,Community/Retail Pharmacy,Pharmacy,Suppliers,38.909704507859,-77.03726548011
1215031281,"DISTRICT OF COLUMBIA CVS PHARMACY, L.L.C.","2009 8TH ST NW, WASHINGTON, DC 20001",2022322201,Community/Retail Pharmacy,Pharmacy,Suppliers,38.916846110666,-77.022873569121
1124122197,"DISTRICT OF COLUMBIA CVS PHARMACY, L.L.C.","1755 COLUMBIA RD NW, WASHINGTON, DC 20009",2022348601,Durable Medical Equipment & Medical Supplies,Durable Medical Equipment & Medical Supplies,Suppliers,38.923757442275,-77.041163809324
1033213004,"DISTRICT OF COLUMBIA CVS PHARMACY, L.L.C.","3601 12TH ST NE, WASHINGTON, DC 20017",2025298559,Community/Retail Pharmacy,Pharmacy,Suppliers,38.933584916405,-76.991009229665
1760586739,"DISTRICT OF COLUMBIA CVS PHARMACY, L.L.C.","1275 PENNSYLVANIA AVE NW, WASHINGTON, DC 20004",2026384583,Community/Retail Pharmacy,Pharmacy,Suppliers,38.895386547672,-77.029197237148
1396849360,DISTRICT OF COLUMBIA CVS PHARMACY LLC,"5013 CONNECTICUT AVE NW, WASHINGTON, DC 20008",2029661815,Community/Retail Pharmacy,Pharmacy,Suppliers,38.955097132894,-77.069785245508
1841394814,"DISTRICT OF COLUMBIA CVS PHARMACY, L.L.C.","110 CARROLL ST NW, WASHINGTON, DC 20012",2027227593,Community/Retail Pharmacy,Pharmacy,Suppliers,38.974747372282,-77.014106626275
1487758454,"DISTRICT OF COLUMBIA CVS PHARMACY, L.L.C.","2226 WISCONSIN AVE NW, WASHINGTON, DC 20007",2029448671,Durable Medical Equipment & Medical Supplies,Durable Medical Equipment & Medical Supplies,Suppliers,38.919434314399,-77.070931399296
1104920172,"DISTRICT OF COLUMBIA CVS PHARMACY, L.L.C.","2240 M ST NW, WASHINGTON, DC 20037",2022969876,Community/Retail Pharmacy,Pharmacy,Suppliers,38.90520691782,-77.049355703753
1407950330,"DISTRICT OF COLUMBIA CVS PHARMACY, L.L.C.","1403 WISCONSIN AVE NW, WASHINGTON, DC 20007",2023374848,Community/Retail Pharmacy,Pharmacy,Suppliers,38.908518654783,-77.063847909412
1770687642,"BIO-MEDICAL APPLICATIONS OF SOUTHEAST WASHINGTON, INC.","4601 MARTIN LUTHER KING JR AVE SW, WASHINGTON, DC 20032",2025629581,End-Stage Renal Disease (ESRD) Treatment Clinic/Center,Clinic/Center,Ambulatory Health Care Facilities,38.824663422771,-77.012428927123
1689778557,"BIO-MEDICAL APPLICATIONS OF COLUMBIA HEIGHTS, INC.","106 IRVING ST NW STE 1400, WASHINGTON, DC 20010",2028290060,End-Stage Renal Disease (ESRD) Treatment Clinic/Center,Clinic/Center,Ambulatory Health Care Facilities,38.931121413944,-77.012428386845
1497859367,"BIO-MEDICAL APPLICATIONS OF THE DISTRICT OF COLUMBIA, INC.","11 DUPONT CIR NW, WASHINGTON, DC 20036",2024830176,End-Stage Renal Disease (ESRD) Treatment Clinic/Center,Clinic/Center,Ambulatory Health Care Facilities,38.910148445051,-77.042872879153
1306941513,NORTHWEST NURSE PRACTITIONER ASSOCIATES INC,"3000 CONNECTICUT AVE NW, SUITE 338, WASHINGTON, DC 20008",2024836672,Nurse Practitioner,Nurse Practitioner,Physician Assistants & Advanced Practice Nursing Providers,38.929881299065,-77.055289576685
1245335074,DISTRICT OF COLUMBIA CVS PHARMACY LLC,"4309 CONNECTICUT AVE NW, WASHINGTON, DC 20008",2029663023,Community/Retail Pharmacy,Pharmacy,Suppliers,38.94442034602,-77.063576434391
1720183577,"DISTRICT OF COLUMBIA CVS PHARMACY, L.L.C.","661 PENNSYLVANIA AVE SE, WASHINGTON, DC 20003",2025433305,Community/Retail Pharmacy,Pharmacy,Suppliers,38.884880746994,-76.997106270745
1639274483,"DISTRICT OF COLUMBIA CVS PHARMACY, L.L.C.","1199 VERMONT AVE NW, WASHINGTON, DC 20005",2026280720,Community/Retail Pharmacy,Pharmacy,Suppliers,38.905232253362,-77.032094625117
1114022944,"DISTRICT OF COLUMBIA CVS PHARMACY, L.L.C.","6 DUPONT CIR NW, WASHINGTON, DC 20036",2027851466,Durable Medical Equipment & Medical Supplies,Durable Medical Equipment & Medical Supplies,Suppliers,38.9094416,-77.04452789999999
1083719801,AMERICAN MEDICAL RESPONSE MID-ATLANTIC INC,"3325 V ST NE, WASHINGTON, DC 20018",2156292600,Land Ambulance,Ambulance,Transportation Services,38.918575237723,-76.960892973093
1710083308,LIFELINE MEDICAL SERVICES INC,"1035 BLADENSBURG RD NE, WASHINGTON, DC 20002",3013860000,Durable Medical Equipment & Medical Supplies,Durable Medical Equipment & Medical Supplies,Suppliers,38.903338380079,-76.981130449914
1477659977,"HELFGOTT, HARGETT & PLUZNIK, M.D., P.C.","1155 21ST ST NW STE M400, WASHINGTON, DC 20036",2022964900,Ophthalmology Physician,Ophthalmology,Allopathic & Osteopathic Physicians,38.904773729731,-77.046572610455
1700982121,OLIVE MEDICAL SERVICES,"1717 K ST NW, SUITE 600, WASHINGTON, DC 20036",2025083889,Durable Medical Equipment & Medical Supplies,Durable Medical Equipment & Medical Supplies,Suppliers,38.902577003944,-77.039567406705
1972600526,WASHINGTON SPINE AND INJURY CENTER P C,"3909 GEORGIA AVE NW, WASHINGTON, DC 20011",2028824410,Chiropractor,Chiropractor,Chiropractic Providers,38.938825260983,-77.024651554995
1487751079,"C O R E PHYSICAL THERAPY, PLLC","2440 M ST NW, SUITE 322, WASHINGTON, DC 20037",2026592673,Orthopedic Physical Therapist,Physical Therapist,"Respiratory, Developmental, Rehabilitative and Restorative Service Providers",38.905202872095,-77.052192324572
1013014869,WRAMC TREASURY TPCP,"1760 USAF PENTAGON, WASHINGTON, DC 20330",7036971188,Military/U.S. Coast Guard Pharmacy,Military/U.S. Coast Guard Pharmacy,Suppliers,38.8718568,-77.0562669
1922105774,NHC QUANTICO,"901 M ST SE BLDG 183, WASHINGTON, DC 20374",2024336808,Military/U.S. Coast Guard Pharmacy,Military/U.S. Coast Guard Pharmacy,Suppliers,38.876415921552,-76.993695622388
1487751236,US CAPITAL PHCY,"US CAPITAL # H166, WASHINGTON, DC 20515",2022258228,Military/U.S. Coast Guard Pharmacy,Military/U.S. Coast Guard Pharmacy,Suppliers,38.886895,-77.0093052
1295832046,WRAMC,"6900 GEORGIA AVE NW, WASHINGTON, DC 20307",2102218274,Military/U.S. Coast Guard Pharmacy,Military/U.S. Coast Guard Pharmacy,Suppliers,38.975877329852,-77.026726607995
1831296680,WRAMC TREASURY TPCP,"400 7TH ST SW RM 6227, WASHINGTON, DC 20024",2023660879,Military/U.S. Coast Guard Pharmacy,Military/U.S. Coast Guard Pharmacy,Suppliers,38.884777173437,-77.021775281484
1881792612,WRAMC,"6900 GEORGIA AVE NW, HEM-ONC CLINIC, WD 78, WASHINGTON, DC 20307",2027825753,Military Hospital,Military Hospital,Hospitals,38.975877329852,-77.026726607995
1033217807,PHYSIOTHERAPY ASSOCIATES INC,"3301 NEW MEXICO AVE NW, SUITE 318, WASHINGTON, DC 20016",2023630454,Rehabilitation Clinic/Center,Clinic/Center,Ambulatory Health Care Facilities,38.932948524519,-77.085443114713
1164529905,TSCHIFFELY PHCY DUPONT CIR,"1330 CONNECTICUT AVE NW, WASHINGTON, DC 20036",2023317176,Pharmacy,Pharmacy,Suppliers,38.907805710302,-77.042456966548
1073610812,TSCHIFFELY PHARMACY AT UNION STATION INC,"50 MASSACHUSETTS AVE NE, WASHINGTON, DC 20002",2024085178,Pharmacy,Pharmacy,Suppliers,38.897414426621,-77.008546460034
1629176029,"DRS LEWIS, UNGER & BARTH, PC","2021 K STREET, N.W., SUITE 400, WASHINGTON, DC 20006",2024665151,Orthopaedic Surgery Physician,Orthopaedic Surgery,Allopathic & Osteopathic Physicians,38.902585509594,-77.045299020768
1730288457,WRAMC,"RM 7817 BLDG 2, WASHINGTON, DC 20307",2102218274,Military/U.S. Coast Guard Pharmacy,Military/U.S. Coast Guard Pharmacy,Suppliers,38.9072873,-77.0369274
1508965062,CENTER PHARMACY,"4900 MASSACHUSETTS AVE NW, WASHINGTON, DC 20016",2023639240,Community/Retail Pharmacy,Pharmacy,Suppliers,38.9456749,-77.09714029999999
1588763296,WRAMC,"6900 GEORGIA AVE NW, RM 2791 BLDG 2, WASHINGTON, DC 20307",2102218274,Military/U.S. Coast Guard Pharmacy,Military/U.S. Coast Guard Pharmacy,Suppliers,38.975877329852,-77.026726607995
1649379363,WALTER REED NATIONAL MILITARY MED CENTER,"BLDG 2 RM 7817, WASHINGTON, DC 20012",2027824737,Military/U.S. Coast Guard Pharmacy,Military/U.S. Coast Guard Pharmacy,Suppliers,38.98009510000001,-77.03053899999999
1558460279,WRAMC,"RM 1PO2 BLDG 2, WASHINGTON, DC 20307",2102218274,Military/U.S. Coast Guard Pharmacy,Military/U.S. Coast Guard Pharmacy,Suppliers,38.9072873,-77.0369274
1467551184,WRAMC,"1501 DEFENSE PENTAGON, WASHINGTON, DC 20310",7036928692,Military/U.S. Coast Guard Pharmacy,Military/U.S. Coast Guard Pharmacy,Suppliers,38.8718568,-77.0562669
1861591190,I-SURGEONS,"908 NEW HAMPSHIRE AVE NW, SUITE 400, WASHINGTON, DC 20037",2024645216,Ophthalmology Physician,Ophthalmology,Allopathic & Osteopathic Physicians,38.900824877788,-77.051797897298
1174623961,"VISIONWORKS, INC.","1335 G STREET , NW, WASHINGTON, DC 20005",2027837171,Optometrist,Optometrist,Eye and Vision Services Providers,38.898368150537,-77.03045457406
1538269303,PHYSIOTHERAPY ASSOCIATES INC,"2021 K ST NW, SUITE 750, WASHINGTON, DC 20006",2022931853,Rehabilitation Clinic/Center,Clinic/Center,Ambulatory Health Care Facilities,38.902585509594,-77.045299020768
1851491161,"BRUCE I. MILZMAN, DDS, LLC","5101 WISCONSIN AVE, NW, SUITE 300, WASHINGTON, DC 20016",2022446000,General Practice Dentistry,Dentist,Dental Providers,38.956026818441,-77.083229054787
1992805022,GOVERNMENT OF THE DISTRICT OF COLUMBIA OFFICE OF TAX AND REVENUE,"899 N CAPITOL ST NE STE 3100, WASHINGTON, DC 20002",2026733320,Land Ambulance,Ambulance,Transportation Services,38.901256138276,-77.008990808218
1134220791,"SIBLEY BILLING SERVICES, INC.","5255 LOUGHBORO RD NW, WASHINGTON, DC 20016",2025374000,Cardiovascular Disease Physician,Internal Medicine,Allopathic & Osteopathic Physicians,38.935795505294,-77.109291835731
1922109305,WALTER REED ARMY MEDICAL CENTER,"6900 GEORGIA AVENUE, N.W., WASHINGTON, DC 20307",2027820039,Military Hospital,Military Hospital,Hospitals,38.975877329852,-77.026726607995
1477654978,WASHINGTON HOSPITAL CENTER CORP,"110 IRVING ST NW, WASHINGTON, DC 20010",2028777000,General Acute Care Hospital,General Acute Care Hospital,Hospitals,38.931118708734,-77.012565000222
1720189954,METRO MEDICAL SUPPLY LLC,"4602 8TH ST NW, WASHINGTON, DC 20011",2027227230,Durable Medical Equipment & Medical Supplies,Durable Medical Equipment & Medical Supplies,Suppliers,38.946279808018,-77.023627568298
1013008267,NORMA M SMALLS-MANTEY MD PC,"HOWARD UNIVERSITY HOSPITAL, 2041 GEORGIA AVE NW DEPARTMENT OF SURGERY, WASHINGTON, DC 20060",2403730003,Surgery Physician,Surgery,Allopathic & Osteopathic Physicians,38.9176068,-77.02079669999999
1275624330,VISION SOURCE DC FOCUS EYECARE CENTER P.C.,"614 17TH ST NW, WASHINGTON, DC 20006",2022986878,Optometrist,Optometrist,Eye and Vision Services Providers,38.897533930251,-77.039552244576
1912098575,CA SANTUCCI PLLC,"1050 17TH ST NW, SUITE 1000, WASHINGTON, DC 20036",2022555889,Clinical Social Worker,Social Worker,Behavioral Health & Social Service Providers,38.903142534029,-77.038581828837
1952492316,USCG MEDICAL CLINIC ELIZABETH CITY,"COMDT CG-1122 U S, 2100 2ND ST SW, SUITE 5314, WASHINGTON, DC 20593",2523356461,Other Technician,"Technician, Other","Technologists, Technicians & Other Technical Service Providers",38.8642076,-77.0130799
1619069416,"DCA HADLEY LTACH, LLC","4601 MARTIN LUTHER KING JR AVE SW, WASHINGTON, DC 20032",2027414170,Long Term Care Hospital,Long Term Care Hospital,Hospitals,38.824663422771,-77.012428927123
1942392667,METROPOLITAN RADIOLOGY ASSOCIATES CHARTERED,"1150 VARNUM ST NE, WASHINGTON, DC 20017",2022697000,Radiology Clinic/Center,Clinic/Center,Ambulatory Health Care Facilities,38.94292349945,-76.99131821994
1174616585,METROPOLITIAN PODIATRY ASSOC PLLC,"7603 GEORGIA AVE NW STE 100, WASHINGTON, DC 20012",2028829682,Podiatrist,Podiatrist,Podiatric Medicine & Surgery Service Providers,38.981996226089,-77.026467331264
1053404731,CAPITOL CARE MEDICAL ASSOCIATES,"1328 SOUTHERN AVE SE, 312, WASHINGTON, DC 20020",2025632844,Specialist,Specialist,Other Service Providers,38.834978689747,-76.983751095579
1578656385,METROPOLITAN REHABILITATION MEDICINE PC,"1160 VARNUM ST NE, SUITE 1008, WASHINGTON, DC 20017",2025260099,Rehabilitation Clinic/Center,Clinic/Center,Ambulatory Health Care Facilities,38.942923499442,-76.991108253954
1528152006,"CENTER FOR AMBULATORY SURGERY, INC,","1145 - 19TH STREET, NW, SUITE 850, WASHINGTON, DC 20036",2022239040,Anesthesiology Physician,Anesthesiology,Allopathic & Osteopathic Physicians,38.904609776957,-77.04338007618
1912090432,"MEDSTAR SURGERY CENTER AT LAFAYETTE CENTRE, LLC","1133 21ST ST NW, SUITE 1000, WASHINGTON, DC 20036",2022239040,Ambulatory Surgical Clinic/Center,Clinic/Center,Ambulatory Health Care Facilities,38.90437718906,-77.046573559141
1972697860,THOMAS M CONNELLY LLC,"5100 WISCONSIN AVE NW, SUITE 251, WASHINGTON, DC 20016",2023620900,Chiropractor,Chiropractor,Chiropractic Providers,38.955983801456,-77.083365637523
1538253786,PLANNED PARENTHOOD OF METROPOLITAN WASHINGTON DC,"1225 4TH ST NE, WASHINGTON, DC 20002",2023478512,Nurse Practitioner,Nurse Practitioner,Physician Assistants & Advanced Practice Nursing Providers,38.906405388035,-77.000498218869
1467546226,SPEQTRUM INC.,"3019 GEORGIA AVE NW, WASHINGTON, DC 20001",2027979444,Home Health Agency,Home Health,Agencies,38.928335199764,-77.023051426936
1649365065,DRS ADELSON AND GINSBERG PC,"1145 19TH ST NW SUITE 506, WASHINGTON, DC 20036",2022962180,Hematology & Oncology Physician,Internal Medicine,Allopathic & Osteopathic Physicians,38.904609776957,-77.04338007618
1164517595,WASHINGTON VA MEDICAL CENTER,"50 IRVING STREET NW, WASHINGTON, DC 20422",2027458000,Rehabilitation Hospital Unit,Rehabilitation Unit,Hospital Units,38.93112691116,-77.010896211168
1942395355,"TEGEST ABEBE, DMD,PC","1325 18TH ST NW, SUITE # 206, WASHINGTON, DC 20036",2023310444,General Practice Dentistry,Dentist,Dental Providers,38.907709403036,-77.041605951649
1770678849,CHEST ASSOCIATES,"1328 SOUTHERN AVE SE, STE 312, WASHINGTON, DC 20032",2025632844,Specialist,Specialist,Other Service Providers,38.834978689747,-76.983751095579
1487740957,HOWARD UNIVERSITY HOSPITAL CORP,"2041 GEORGIA AVE NW, WASHINGTON, DC 20060",2028653623,General Acute Care Hospital,General Acute Care Hospital,Hospitals,38.918269998864,-77.021825068277
1831285303,HOWARD UNIVERSITY HOSPITAL,"2041 GEORGIA AVE NW, WASHINGTON, DC 20060",2028656228,Skilled Nursing Facility,Skilled Nursing Facility,Nursing & Custodial Care Facilities,38.918269998864,-77.021825068277
1598850448,TERRELL A WATERS DDS PC,"4300 WHEELER ROAD SE, WASHINGTON, DC 20032",2025628827,General Practice Dentistry,Dentist,Dental Providers,38.832658502147,-76.988144018403
1053406348,COMDT(CG-1122) U.S. CAOST GUARD,"2100 2ND ST SW, SUITE 5314, WASHINGTON, DC 20593",7578562230,Other Technician,"Technician, Other","Technologists, Technicians & Other Technical Service Providers",38.8642076,-77.0130799
1841386067,BERHAN HOME HEALTH CARE AGENCY INC,"7826 EASTERN AVE NW, SUITE LL 16, WASHINGTON, DC 20012",2027231100,Home Health Agency,Home Health,Agencies,38.98507434575,-77.027367393797
1053407122,WASHINGTON CENTER FOR AGING SERVICES,"2601 18TH ST NE, WASHINGTON, DC 20018",2025416200,Skilled Nursing Facility,Skilled Nursing Facility,Nursing & Custodial Care Facilities,38.923492502904,-76.978922075427
1750477600,"GREGORY BUTLER, MD, PC.","1647 BENNING RD NE, SUITE 205, WASHINGTON, DC 20002",2023972800,Ophthalmology Physician,Ophthalmology,Allopathic & Osteopathic Physicians,38.899472915603,-76.98049424402
1144316936,CHARLES A RAUGH DPM PC,"1800 I ST NW, SUITE 503B, WASHINGTON, DC 20006",2026282230,Podiatrist,Podiatrist,Podiatric Medicine & Surgery Service Providers,38.901282022211,-77.041771156833
1831286335,PETERSON NEUROLOGY PC,"1140 VARNUM ST NE, SUITE #101, WASHINGTON, DC 20017",2025262509,Neurology Physician,Psychiatry & Neurology,Allopathic & Osteopathic Physicians,38.942923499458,-76.991528185926
1205923604,DCA CAPITOL HILL SNF LLC,"223 7TH ST NE, WASHINGTON, DC 20002",2025465700,Skilled Nursing Facility,Skilled Nursing Facility,Nursing & Custodial Care Facilities,38.892550691596,-76.99609410407
1427145176,"MEDSTAR - GEORGETOWN MEDICAL CENTER, INC.","3800 RESERVOIR RD., NW, WASHINGTON, DC 20007",2024443000,End-Stage Renal Disease (ESRD) Treatment Clinic/Center,Clinic/Center,Ambulatory Health Care Facilities,38.912544697661,-77.074941256453
1114014685,ABA INC,"821 KENNEDY ST NW, WASHINGTON, DC 20011",2027221725,Home Health Agency,Home Health,Agencies,38.95637495104,-77.024429999214
1821185158,WALTER REED ARMY MEDICAL CENTER,"6900 GEORGIA AVE NW, WASHINGTON, DC 20307",2027822907,Military General Acute Care Hospital,Military Hospital,Hospitals,38.975877329852,-77.026726607995
1891882098,CAPITOL CARE MEDICAL ASSOCIATES,"1328 SOUTHERN AVE SE, SUITE 312, WASHINGTON, DC 20032",2025632844,Pulmonary Disease Physician,Internal Medicine,Allopathic & Osteopathic Physicians,38.834978689747,-76.983751095579
1821185034,CECILIA CUELLAR DDS PC,"4000 ALBEMARLE ST NW STE 203, WASHINGTON, DC 20016",2023634361,General Practice Dentistry,Dentist,Dental Providers,38.947842868436,-77.078599477266
1922195148,"WASHINGTON VASCULAR AND THORACIC ASSOCIATES, LLC","106 IRVING ST NW, SUITE 3150 NORTH, WASHINGTON, DC 20010",4108823459,Specialist,Specialist,Other Service Providers,38.931121413944,-77.012428386845
1619064854,WASHINGTON EYE DOCTORS PC,"900 17TH ST NW STE 400, WASHINGTON, DC 20006",2023317566,Optometrist,Optometrist,Eye and Vision Services Providers,38.901397509618,-77.039522327316
1508953753,ARMED FORCES INSTITUTE OF PATHOLOGY,"ARMED FORCES INSTITITUTE OF PATHOLOLGY, 14TH & ALASKA AVE, NW, WASHINGTON, DC 20306",2027821602,Military Clinical Medical Laboratory,Military Clinical Medical Laboratory,Laboratories,38.9775931,-77.03340829999999
1295822427,WASHINGTON CENTER FOR DENTISTRY,"1925 K ST NW, SUITE 507, WASHINGTON, DC 20006",2022236630,General Practice Dentistry,Dentist,Dental Providers,38.90258550954,-77.043848419221
1275621021,"FAMILY PRACTICES MEDICAL SERVICES, PC","1647 BENNING RD NE, SUITE 301, WASHINGTON, DC 20002",2023982100,Family Medicine Physician,Family Medicine,Allopathic & Osteopathic Physicians,38.899472915603,-76.98049424402
1104914902,HORACIO G SCHAPIRO MD,"818 18TH ST NW, SUITE 950, WASHINGTON, DC 20006",2022234882,Internal Medicine Physician,Internal Medicine,Allopathic & Osteopathic Physicians,38.900458104372,-77.041772325507
1396834321,EAGLE MEDICAL,"635 FLORIDA AVE NW, WASHINGTON, DC 20001",2026390250,Durable Medical Equipment & Medical Supplies,Durable Medical Equipment & Medical Supplies,Suppliers,38.916074958229,-77.021307706137
1124118567,ALAN MORRISON DO LLC,"5410 CONNECTICUT AVE NW, SUITE 103, WASHINGTON, DC 20015",2029660622,Internal Medicine Physician,Internal Medicine,Allopathic & Osteopathic Physicians,38.961725258017,-77.073805525419
1578653721,BUMED,"2300 E ST NW CODE # M3B6, WASHINGTON, DC 20372",2027623017,Community/Behavioral Health Agency,Community/Behavioral Health,Agencies,38.896168508217,-76.973621107089
1316037526,RITEWAY MEDICAL EQUIPMENT SUPPLIES,"3019 GEORGIA AVE NW, WASHINGTON, DC 20001",2027238400,Durable Medical Equipment & Medical Supplies,Durable Medical Equipment & Medical Supplies,Suppliers,38.928335199764,-77.023051426936
1447330246,UNITIED STATES COAST GUARD,"2100 2ND ST SW COMDT (CG-1122), SUITE 5314 US COAST GUARD, WASHINGTON, DC 20593",6098986610,Other Technician,"Technician, Other","Technologists, Technicians & Other Technical Service Providers",38.8642076,-77.0130799
1073693990,GEORGE LARRY WHEELER SR,"3000 CONNECTICUT AVE NW, SUITE 321, WASHINGTON, DC 20008",2022652343,Mental Health Counselor,Counselor,Behavioral Health & Social Service Providers,38.929881299065,-77.055289576685
1346320934,ALLEN A FLOOD MD,"650 PENNSYLVANIA AVE SE, WASHINGTON, DC 20003",2025479090,Dermatology Physician,Dermatology,Allopathic & Osteopathic Physicians,38.8852721,-76.9969902
1518047950,"DISCOUNT DRUGS WISCONSIN, INC.","5100 WISCONSIN AVE NW, WASHINGTON, DC 20016",2023633466,Pharmacy,Pharmacy,Suppliers,38.955983801456,-77.083365637523
1811078314,UNITED STATES COAST GUARD,"2100 2ND ST SW, SUITE 5314, WASHINGTON, DC 20593",5089686572,Military General Acute Care Hospital,Military Hospital,Hospitals,38.8642076,-77.0130799
1730260142,WALTER REED ARMY MEDICAL CENTER,"6900 GEORGIA AVE NW, WASHINGTON, DC 20307",2027826374,Military Hospital,Military Hospital,Hospitals,38.975877329852,-77.026726607995
1609958529,WILLIAM J BROWNLEE M D LLC,"1160 VARNUM ST NE STE 213, WASHINGTON, DC 20017",2025260200,Surgical Critical Care Physician,Surgery,Allopathic & Osteopathic Physicians,38.942923499442,-76.991108253954
1053494526,"VISIONWORKS, INC.","1775 K ST NW, WASHINGTON, DC 20006",2024636364,Eyewear Supplier,Eyewear Supplier,Suppliers,38.902582810785,-77.041016199997
1083797559,"VISIONWORKS, INC.","4301 WISCONSIN AVE NW, WASHINGTON, DC 20016",2022378500,Eyewear Supplier,Eyewear Supplier,Suppliers,38.944858328444,-77.077889141736
1609959709,"JC COUNSELING/THERAPY SERVICES, INC.","1702 MINNESOTA AVE SE, 2ND FL., WASHINGTON, DC 20020",2026100862,Community/Behavioral Health Agency,Community/Behavioral Health,Agencies,38.868559108094,-76.980717388076
1235212309,HUMAN TOUCH HOME HEALTH CARE SERVICES INC,"1416 9TH ST NW, WASHINGTON, DC 20001",2024839111,Durable Medical Equipment & Medical Supplies,Durable Medical Equipment & Medical Supplies,Suppliers,38.908789655894,-77.024042339189
1689758203,RICHEY FAS LLC,"5335 WISCONSIN AVE NW, SUITE 100, WASHINGTON, DC 20015",2025370200,Durable Medical Equipment & Medical Supplies,Durable Medical Equipment & Medical Supplies,Suppliers,38.960059564396,-77.085284809346
1942384383,COMDT (CG-1122),"U S COAST GUARD 2100 2ND ST SW STE 5314, WASHINGTON, DC 20593",7077657200,Other Technician,"Technician, Other","Technologists, Technicians & Other Technical Service Providers",38.8641217,-77.0130384
1952485187,"JANILCAR, INC","5001 NEW HAMPSHIRE AVE NW, WASHINGTON, DC 20011",2027263100,Pharmacy,Pharmacy,Suppliers,38.95123146719,-77.013140527428
1528142809,COAST GUARD,"COMDT CG-1122 2100 2ND ST SW, SUITE 5314, WASHINGTON, DC 20593",5089686572,Military and U.S. Coast Guard Ambulatory Procedure Clinic/Center,Clinic/Center,Ambulatory Health Care Facilities,38.8641217,-77.0130384
1376627406,WASHINGTON HOSPITAL CENTER CORP,"110 IRVING ST NW, MEDICAL AFFAIRS, WASHINGTON, DC 20010",2028775284,General Acute Care Hospital,General Acute Care Hospital,Hospitals,38.931118708734,-77.012565000222
1144305780,"VISIONWORKS, INC","1335 G ST NW, WASHINGTON, DC 20005",2027837171,Eyewear Supplier,Eyewear Supplier,Suppliers,38.898368150537,-77.03045457406
1295810661,ROBAND ENTERPRISES BODY MIND SPIRIT,"4231 BLAGDEN AVE NW, WASHINGTON, DC 20011",2028820970,Physical Therapy Clinic/Center,Clinic/Center,Ambulatory Health Care Facilities,38.942850413751,-77.045420195451
1366527525,DOORS OF HOPE MEDICAL SUPPLIES,"1328 SOUTHERN AVE SE, SUITE 100, WASHINGTON, DC 20032",2024680054,Durable Medical Equipment & Medical Supplies,Durable Medical Equipment & Medical Supplies,Suppliers,38.834978689747,-76.983751095579
1295810117,DEPARTMENT OF STATE,"DEPARTMENT OF STATE, 2401 E STREET NW, M/MED/QI, SA-1, WASHINGTON, DC 20522",2026632453,Health Service Clinic/Center,Clinic/Center,Ambulatory Health Care Facilities,38.89659899999999,-77.052114
1154408029,CITYCARE MEDICAL SUPPLIER INC,"641 FLORIDA AVE NW, WASHINGTON, DC 20001",2026678287,Durable Medical Equipment & Medical Supplies,Durable Medical Equipment & Medical Supplies,Suppliers,38.91609423479,-77.021353673309
1487730636,"MEDSTAR - GEORGETOWN MEDICAL CENTER, INC.","3800 RESERVOIR RD., NW, WASHINGTON, DC 20007",2024443000,Psychiatric Hospital Unit,Psychiatric Unit,Hospital Units,38.912544697661,-77.074941256453
1467538371,USCG HEADQUARTERS SUPPORT COMMAND (K),"COMDT 2100 2ND ST SW, CG-1122, SUITE 5314, WASHINGTON, DC 20593",2023724103,Military/U.S. Coast Guard Outpatient Clinic/Center,Clinic/Center,Ambulatory Health Care Facilities,38.8642725,-77.0132368
1023195682,"WILLIAM E. MORRIS, M.D., PC","1140 VARNUM ST NE, SUITE B010, WASHINGTON, DC 20017",2028321522,Ophthalmology Physician,Ophthalmology,Allopathic & Osteopathic Physicians,38.942923499458,-76.991528185926
1881771442,HOSPITAL CARE ASSOCIATES PLLC,"2175 K ST NW, SUITE 300, WASHINGTON, DC 20037",2027758600,Surgery Physician,Surgery,Allopathic & Osteopathic Physicians,38.902621509697,-77.048251152494
1194802199,GREATER NORTH EAST EYE CARE CTN,"1647 BENNING RD NE, SUITE 102, WASHINGTON, DC 20002",2023968200,Ophthalmology Physician,Ophthalmology,Allopathic & Osteopathic Physicians,38.899472915603,-76.98049424402
1447338397,COMPREHENSIVE COMMUNITY HEALTH & PSYCHOLOGICAL SERVICES,"1250 H ST NE, WASHINGTON, DC 20002",2025435830,Addiction (Substance Use Disorder) Counselor,Counselor,Behavioral Health & Social Service Providers,38.900254507975,-76.989255176871
1548347008,PHYSIOTHERAPY ASSOCIATES INC,"600 PENNSYLVANIA AVE SE, SUITE 202, WASHINGTON, DC 20003",2025439400,Rehabilitation Clinic/Center,Clinic/Center,Ambulatory Health Care Facilities,38.8857011,-76.997652
1093894172,"UNITY HEALTH CARE, INC.","3020 14TH ST NW, WASHINGTON, DC 20009",2027454300,Gastroenterology Physician,Internal Medicine,Allopathic & Osteopathic Physicians,38.92782882786,-77.032613536059
1720167398,"OBGYN PHYSICIANS OF WASHINGTON, CHTD.","2141 K ST NW, #808, WASHINGTON, DC 20037",2023319293,Gynecology Physician,Obstetrics & Gynecology,Allopathic & Osteopathic Physicians,38.902621509671,-77.047546468331
1669541777,"PRIME, INC","1647 BENNING RD NE, STE 101, WASHINGTON, DC 20002",2023997876,Community/Retail Pharmacy,Pharmacy,Suppliers,38.899472915603,-76.98049424402
1427127372,BEST CARE PHARMACY OF MARYLAND INC,"3812 NORTHAMPTON ST NW, WASHINGTON, DC 20015",2029668600,Pharmacy,Pharmacy,Suppliers,38.96601010001,-77.076400361233
1649349085,ULTRA INTERNATIONAL CORPORATION,"439 ONEIDA PL NW, WASHINGTON, DC 20011",2022917226,Home Health Agency,Home Health,Agencies,38.962066496619,-77.018770391489
1275602591,CHARTERED FAMILY HELATH CENTER,"3924 MINNESOTA AVE NE, WASHINGTON, DC 20019",2023988683,Clinic/Center,Clinic/Center,Ambulatory Health Care Facilities,38.89371733282,-76.950294574991
1487724159,"HOSPITAL CARE ASSOCATES, PLLC","2175 K ST NW, SUITE 300, WASHINGTON, DC 20037",2027758600,Surgery Physician,Surgery,Allopathic & Osteopathic Physicians,38.902621509697,-77.048251152494
1467523688,"JOHN P. A. GEORGE, M.D. CHARTERED","6323 GEORGIA AVE NW, STE# 201, WASHINGTON, DC 20011",2022910039,Gynecology Physician,Obstetrics & Gynecology,Allopathic & Osteopathic Physicians,38.966419347739,-77.027502165547
1417029935,ANCHOR MENTAL HEALTH ASSOCIATION,"1001 LAWRENCE ST NE, WASHINGTON, DC 20017",2026355900,Community/Behavioral Health Agency,Community/Behavioral Health,Agencies,38.931414910415,-76.992467062379
1588736656,GREATER SOUTHEAST COMMUNITY HOSPITAL CORP I,"1310 SOUTHERN AVE SE, WASHINGTON, DC 20032",2025746000,General Acute Care Hospital,General Acute Care Hospital,Hospitals,38.834714676807,-76.984090338685
1982776761,REMTUN PHARMACEUTICALS INC,"7814 EASTERN AVE NW, WASHINGTON, DC 20012",2027222426,Pharmacy,Pharmacy,Suppliers,38.984979541985,-77.027244647896
1942372552,WASHINGTON SCHOOL OF PSYCHIATRY,"5028 WISCONSIN AVE NW, SUITE 400, WASHINGTON, DC 20016",2022372700,Community/Behavioral Health Agency,Community/Behavioral Health,Agencies,38.955060775038,-77.082892322176
1568535318,J DESIREE PINEDA MD PLLC,"2440 M ST NW, 712, WASHINGTON, DC 20037",2028280935,Internal Medicine Physician,Internal Medicine,Allopathic & Osteopathic Physicians,38.905202872095,-77.052192324572
1649344201,MID-ATLANTIC PODIATRY ASSOCIATES,"4910 MASSACHUSETTS AVE NW, 315, WASHINGTON, DC 20016",2023622883,Foot & Ankle Surgery Podiatrist,Podiatrist,Podiatric Medicine & Surgery Service Providers,38.946458042861,-77.097718017898
1376617068,MILLENNIUM SCAN INTERNATIONAL LLC,"2440 M ST NW, SUITE 203, WASHINGTON, DC 20037",2027759710,Diagnostic Radiology Physician,Radiology,Allopathic & Osteopathic Physicians,38.905202872095,-77.052192324572
1427122159,ASHESH D PATEL MD PC,"1901 R ST NW, WASHINGTON, DC 20009",2022964897,Internal Medicine Physician,Internal Medicine,Allopathic & Osteopathic Physicians,38.912665507495,-77.043504837074
1821162975,HANGER PROSTHETICS & ORTHOTICS INC,"5210 3RD ST NE STE B, WASHINGTON, DC 20011",2026350500,Durable Medical Equipment & Medical Supplies,Durable Medical Equipment & Medical Supplies,Suppliers,38.953067901618,-77.001337960101
1396819397,"RICHEY, INC.","3221 M ST NW, WASHINGTON, DC 20007",2024647483,Durable Medical Equipment & Medical Supplies,Durable Medical Equipment & Medical Supplies,Suppliers,38.905218909346,-77.063489164059
1871667840,"NEUROLOGY ASSOCIATES, PC","1800 R ST NW, SUITE C-3, WASHINGTON, DC 20009",2024620455,Neurology Physician,Psychiatry & Neurology,Allopathic & Osteopathic Physicians,38.912550916055,-77.041736337632
1487729026,OPTICAL GALLERY INC,"1150 18TH ST NW, WASHINGTON, DC 20036",2024675555,Optometrist,Optometrist,Eye and Vision Services Providers,38.904324680824,-77.04175219977
1306911094,DENTAL PROFESSIONAL ASSOC LLC,"1160 VARNUM STREET NE, SUITE 006, WASHINGTON, DC 20017",2022697103,Dentist,Dentist,Dental Providers,38.942923499442,-76.991108253954
1558436493,"KAISER FOUNDATION HEALTH PLAN OF THE MID ATLANTIC STATES, INC","2301 M ST NW, WASHINGTON, DC 20037",2024196200,Clinical Medical Laboratory,Clinical Medical Laboratory,Laboratories,38.905321509225,-77.050182827826
1700952595,"PHARM-PRO, INC.","3001 P ST NW, WASHINGTON, DC 20007",2023374100,Community/Retail Pharmacy,Pharmacy,Suppliers,38.909371508749,-77.059308828938
1831265131,"PSYCHIATRIC CENTER CHARTERED,INC","3001 BLADENSBURG RD NE, WASHINGTON, DC 20018",2026353577,Psychiatry Physician,Psychiatry & Neurology,Allopathic & Osteopathic Physicians,38.928102214927,-76.961382193438
1841366002,WASHINGTON EYE SPECIALISTS LLC,"1160 VARNUM ST NE, DEPAUL BLDG., SUITE 011, WASHINGTON, DC 20017",2025295200,Ophthalmology Physician,Ophthalmology,Allopathic & Osteopathic Physicians,38.942923499442,-76.991108253954
1942377494,"DRS. CARLOS & MAHVASSH ABREU, DMD,PC","1712 I ST NW, SUITE 906, WASHINGTON, DC 20006",2024960891,General Practice Dentistry,Dentist,Dental Providers,38.901275334408,-77.039777514357
1215004007,"RAD MOBILE, LLC","700 CONSTITUTION AVE NE, WASHINGTON, DC 20002",2022707829,Portable X-ray and/or Other Portable Diagnostic Imaging Supplier,Portable X-ray and/or Other Portable Diagnostic Imaging Supplier,Suppliers,38.892073509861,-76.995603604737
1710054663,GEORGETOWN UNIVERSITY HOSPITAL,"3800 RESERVIOR RD NW, WASHINGTON, DC 20007",2024444180,Physical Therapist,Physical Therapist,"Respiratory, Developmental, Rehabilitative and Restorative Service Providers",38.912544697661,-77.074941256453
1669549192,ANDROMEDA TRANSCULTURAL HEALTH,"1400 DECATUR ST NW, WASHINGTON, DC 20011",2022914707,Registered Dietitian,"Dietitian, Registered",Dietary & Nutritional Service Providers,38.948208908537,-77.03279937526
1649347436,SUBURBAN/NRH MEDICAL REHABILITATION INC,"1145 19TH ST NW, SUITE 403, WASHINGTON, DC 20036",3015406140,Physical Therapist,Physical Therapist,"Respiratory, Developmental, Rehabilitative and Restorative Service Providers",38.904609776957,-77.04338007618
1295803856,"SOME, INC","60 O STREET NW, WASHINGTON, DC 20001",2027978806,Addiction (Substance Use Disorder) Counselor,Counselor,Behavioral Health & Social Service Providers,38.908509915729,-77.011150591484
1104984806,ARMED FORCES RETIREMENT HOME,"3700 N CAPITOL ST NW, KING HEALTH CENTER, WASHINGTON, DC 20011",2027303323,Adult Care Home Facility,Custodial Care Facility,Nursing & Custodial Care Facilities,38.93767721666,-77.006951453863
1235297961,VMT HOME HEALTH AGENCY,"4201 CONNECTICUT AVE NW, SUITE 200, WASHINGTON, DC 20008",2022823104,Home Health Agency,Home Health,Agencies,38.943230030537,-77.06288395963
1316005069,JB JOHNSON NURSING CENTER,"901 1ST ST NW, WASHINGTON, DC 20001",2025351100,Skilled Nursing Facility,Skilled Nursing Facility,Nursing & Custodial Care Facilities,38.901380756357,-77.012088728422
1679631980,"NADER REZVANI D.D.S., P.C.","908 NEW HAMPSHIRE AVE NW, SUITE 301, WASHINGTON, DC 20037",2024570070,General Practice Dentistry,Dentist,Dental Providers,38.900824877788,-77.051797897298
1336207927,"NURSING UNLIMITED SERVICES, INC.","1328 G ST SE, WASHINGTON, DC 20003",2025472949,Developmental Disabilities Clinic/Center,Clinic/Center,Ambulatory Health Care Facilities,38.881310089273,-76.987098326076
1942368402,"KAISER FOUNDATION HEALTH PLAN OF THE MID ATLANTIC STATES, INC","2301 M ST NW, SUITE # 200, WASHINGTON, DC 20037",2024196900,Managed Care Organization Pharmacy,Pharmacy,Suppliers,38.905321509225,-77.050182827826
1720147630,THE MAE CORPORATION,"833 KENNEDY STREET NW, WASHINGTON, DC 20011",2025456860,Long Term Care Pharmacy,Pharmacy,Suppliers,38.956368848015,-77.024623007595
1992864094,"CAPITAL MEDICAL ASSOCIATES, PC","1640 RHODE ISLAND AVE NW STE 800, WASHINGTON, DC 20036",2028226311,Specialist,Specialist,Other Service Providers,38.906701322769,-77.037900593731
1700945979,EDMONDS OPTICIAN OF SPRING VALLEY INC.,"4900 MASSACHUSETTS AVE NW, WASHINGTON, DC 20016",2022370070,Optician,Technician/Technologist,Eye and Vision Services Providers,38.9456749,-77.09714029999999
1447319504,SEAT PLEASANT DRUGS INC,"354 EASTERN AVE NE, WASHINGTON, DC 20019",2023963400,Community/Retail Pharmacy,Pharmacy,Suppliers,38.894118809567,-76.91105906635
1033278825,"P&M PHARMACY, INC","3000 CONNECTICUT AVE NW, WASHINGTON, DC 20008",2022651300,Community/Retail Pharmacy,Pharmacy,Suppliers,38.929881299065,-77.055289576685
1699834028,"NATIONAL CHILDREN'S CENTER, INC.","6200 2ND ST NW, WASHINGTON, DC 20011",2027222300,Intellectual & Developmental Disabilities Psychologist,Psychologist,Behavioral Health & Social Service Providers,38.965010078982,-77.013723139815
1700945466,SEAT PLEASANT DRUGS INC,"354 EASTERN AVE NE, WASHINGTON, DC 20019",2023963400,Durable Medical Equipment & Medical Supplies,Durable Medical Equipment & Medical Supplies,Suppliers,38.894118809567,-76.91105906635
1346300308,WALTER REED ARMY MEDICAL CENTER,"2 WRAMC DEPARTMENT, 6900 GEORGIA AVE NW, WASHINGTON, DC 20307",2027828515,Gynecologic Oncology Physician,Obstetrics & Gynecology,Allopathic & Osteopathic Physicians,38.9765333,-77.0293903
1942360102,"PHYSICAL THERAPY AND SPORTS MEDICINE BINH M. TRAN PT, INC.","2021 K ST NW, SUITE 100, WASHINGTON, DC 20006",2022236371,Physical Therapist,Physical Therapist,"Respiratory, Developmental, Rehabilitative and Restorative Service Providers",38.902585509594,-77.045299020768
1700946431,"WANDA PAK, M.D., P.C.","3301 NEW MEXICO AVE., NW, SUITE 226, WASHINGTON, DC 20016",2022449404,Ophthalmology Physician,Ophthalmology,Allopathic & Osteopathic Physicians,38.932948524519,-77.085443114713
1376603514,U.S. DEPARTMENT OF STATE,"2401 E STREET NW, M.MED.QI, SA-1, WASHINGTON, DC 20522",2026632453,Health Service Clinic/Center,Clinic/Center,Ambulatory Health Care Facilities,38.896137844717,-77.051507258372
1588724116,"SHARMIN DENTAL CLINIC, P.C.","1613 HARVARD ST NW, SUITE 108, WASHINGTON, DC 20009",2024625227,Endodontics,Dentist,Dental Providers,38.927147003058,-77.037931654373
1982765228,"PHYSICAL MEDICINE ASSOCIATES, LLC","5225 WISCONSIN AVE NW, SUITE 601, WASHINGTON, DC 20015",2023646016,Physical Therapist,Physical Therapist,"Respiratory, Developmental, Rehabilitative and Restorative Service Providers",38.958105659501,-77.084286074745
1750442224,"LIFE ENHANCEMENT SERVICES, LLC","1818 NEW YORK AVE NE STE 115, WASHINGTON, DC 20002",2022692401,Mental Health Counselor,Counselor,Behavioral Health & Social Service Providers,38.9177239,-76.9767437
1922169408,"JAMES A SIMON, MD, PC","1850 M ST NW, SUITE 450, WASHINGTON, DC 20036",2022931000,Reproductive Endocrinology Physician,Obstetrics & Gynecology,Allopathic & Osteopathic Physicians,38.905598502887,-77.042584183007
1184785958,HOWARD UNIVERSITY HOSPITAL,"2041 GEORGIA AVE NW, TOWER BUILDING SUITE 6125, WASHINGTON, DC 20060",2028653623,End-Stage Renal Disease (ESRD) Treatment Clinic/Center,Clinic/Center,Ambulatory Health Care Facilities,38.918269998864,-77.021825068277
1215098827,MEDSTAR NATIONAL REHABILITATION HOSPITAL,"102 IRVING ST NW, WASHINGTON, DC 20010",2028771734,Pharmacy,Pharmacy,Suppliers,38.931124119155,-77.012291773469
1881756435,WALTER REED ARMY MEDICAL CENTER,"WRAMC, BLDG 2, DEPT OF PEDIATRICS, 6900 GEORGIA AVE, NW, WASHINGTON, DC 20307",2027826248,Military Hospital,Military Hospital,Hospitals,38.9765333,-77.0293903
1043372683,WALTER REED ARMY MEDICAL CENTER,"WRAMC MEDICINE, 6900 GEORGIA AVE, WASHINGTON, DC 20307",2027825599,Military Hospital,Military Hospital,Hospitals,38.9765333,-77.0293903
1891857488,PHILIP ASSATOURIANS MD PLLC,"2141 K ST NW, SUITE 606, WASHINGTON, DC 20037",2022232283,Internal Medicine Physician,Internal Medicine,Allopathic & Osteopathic Physicians,38.902621509671,-77.047546468331
1053473140,WALTER REED ARMY MEDICAL CENTER,"2 WRAMC RM 2J38, 6900 GEORGIA AVE NW, WASHINGTON, DC 20307",2027821392,Military Hospital,Military Hospital,Hospitals,38.9765333,-77.0293903
1003978503,"NEW VISION PHOTOGRAPHY PROGRAM, INC","680 RHODE ISLAND AVE NE, WASHINGTON, DC 20002",2022696723,Private Vehicle,Private Vehicle,Transportation Services,38.921211334297,-76.99667943947
1356403943,LINDA J ASSATOURIANS MD PLLC,"2141 K ST NW, SUITE 600, WASHINGTON, DC 20037",2022232283,Internal Medicine Physician,Internal Medicine,Allopathic & Osteopathic Physicians,38.902621509671,-77.047546468331
1619039930,THE WASHINGTON HOME,"3720 UPTON ST NW, WASHINGTON, DC 20016",2028950192,Skilled Nursing Facility,Skilled Nursing Facility,Nursing & Custodial Care Facilities,38.942160911315,-77.074533524999
1437211638,LITTLE SISTERS OF THE POOR OF WASHINGTON DC,"4200 HAREWOOD RD NE, WASHINGTON, DC 20017",2022691831,Nursing Facility/Intermediate Care Facility,Nursing Facility/Intermediate Care Facility,Nursing & Custodial Care Facilities,38.939215975501,-77.002784904385
1770645954,WALTER REED ARMY MEDICAL CENTER,"6 WRAMC DEPT, 6900 GEORGIA AVE. NW, WASHINGTON, DC 20307",2027828055,Military Hospital,Military Hospital,Hospitals,38.9765333,-77.0293903
1639231632,WRAMC,"1501 DEFENSE PENTAGON, WASHINGTON, DC 20310",2102218274,Military/U.S. Coast Guard Pharmacy,Military/U.S. Coast Guard Pharmacy,Suppliers,38.8718568,-77.0562669
1902968076,"ERIC D. SHAW, PH.D. CONSULTING & CLINICAL PSYCHOLOGY, LTD","5225 CONNECTICUT AVE NW, SUITE 514, WASHINGTON, DC 20015",2026869150,Clinical Psychologist,Psychologist,Behavioral Health & Social Service Providers,38.958327268082,-77.071668392145
1861554867,WRAMC,"1501 DEFENSE PENTAGON, WASHINGTON, DC 20310",2102218274,Military/U.S. Coast Guard Pharmacy,Military/U.S. Coast Guard Pharmacy,Suppliers,38.8718568,-77.0562669
1760544761,WRAMC,"1501 DEFENSE PENTAGON, WASHINGTON, DC 20310",2102218274,Military/U.S. Coast Guard Pharmacy,Military/U.S. Coast Guard Pharmacy,Suppliers,38.8718568,-77.0562669
1952463952,WRAMC,"1501 DEFENSE PENTAGON, WASHINGTON, DC 20310",2102218274,Military/U.S. Coast Guard Pharmacy,Military/U.S. Coast Guard Pharmacy,Suppliers,38.8718568,-77.0562669
1700949021,"ANDREW J ADELSON, MD","1145 19TH ST NW, 607, WASHINGTON, DC 20036",2024969181,Ophthalmology Physician,Ophthalmology,Allopathic & Osteopathic Physicians,38.904609776957,-77.04338007618
1710040720,WILLIAM WENDT CENTER FOR LOSS AND HEALING,"4201 CONNECTICUT AVENUE NW, SUITE 300, WASHINGTON, DC 20008",2026240010,Mental Health Clinic/Center (Including Community Mental Health Center),Clinic/Center,Ambulatory Health Care Facilities,38.943230030537,-77.06288395963
1629132428,WALTER REED ARMY MEDICAL CENTER,"2J38 WRAMC, 6900 GEORGIA AVENUE. NW, WASHINGTON, DC 20307",2027827327,Social Worker,Social Worker,Behavioral Health & Social Service Providers,38.9765333,-77.0293903
1447313580,UNIVERSITY DERMATOLOGY ASSOCIATES PLLC,"1120 19TH ST NW, SUITE 250, WASHINGTON, DC 20036",2029556995,Dermatology Physician,Dermatology,Allopathic & Osteopathic Physicians,38.904168632375,-77.043529203198
1154484251,IDEAL NURSING SERVICES INC,"820 UPSHUR STREET NW, WASHINGTON, DC 20011",2027230304,Respite Care,Respite Care,Respite Care Facility,38.941858764275,-77.02373853046
1194889873,MEDICAL FACULTY ASSOCIATES,"2150 PENNSYLVANIA AVE NW, FLOOR 2A, WASHINGTON, DC 20037",2027412825,Clinic/Center,Clinic/Center,Ambulatory Health Care Facilities,38.901653229487,-77.047796217413
1174687669,"YELENA OBHOLZ, D.D.S., P.L.L.C.","5101 WISCONSIN AVE NW STE 107, WASHINGTON, DC 20016",2023648989,Endodontics,Dentist,Dental Providers,38.956026818441,-77.083229054787
1730244617,HOWARD UNIVERSITY HOSPITAL,"520 W STREET NW, SUITE 3408, WASHINGTON, DC 20059",2028066311,General Acute Care Hospital,General Acute Care Hospital,Hospitals,38.91915373888,-77.019517890654
1710041603,WALTER REED ARMY MEDICAL CENTER,"WRAMC, BLDG 6, DEPARTMENT OF SOCIAL WORK, 6900 GEORGIA AVE. NW, WASHINGTON, DC 20307",2027826378,Military General Acute Care Hospital,Military Hospital,Hospitals,38.9765333,-77.0293903
1942365382,NEIGHBORHOOD PHARMACY,"1932 MARTIN LUTHER KING JR AVE SE, WASHINGTON, DC 20020",2028891119,Community/Retail Pharmacy,Pharmacy,Suppliers,38.866756674596,-76.98884364334
1356406474,SIERRA INTERNATIONAL PHARMACEUTICAL,"3316 14TH ST NW, WASHINGTON, DC 20010",2022321455,Community/Retail Pharmacy,Pharmacy,Suppliers,38.930729489345,-77.03276142388
1962567008,"MILLER EYECARE ANNAPOLIS DC, LLC","1330 CONNECTICUT AVE NW, WASHINGTON, DC 20036",2027855700,Optometrist,Optometrist,Eye and Vision Services Providers,38.907805710302,-77.042456966548
1689739823,"MY EYE DR. M STREET, LLC","1800 M ST NW, WASHINGTON, DC 20036",2024636300,Optometrist,Optometrist,Eye and Vision Services Providers,38.90559429433,-77.041759311976
1003972936,BERKSHIRE FAMILY DENTISTRY PC,"4201 MASSACHUSETTS AVE NW STE 1040C, WASHINGTON, DC 20016",2022443902,General Practice Dentistry,Dentist,Dental Providers,38.935018199276,-77.081832872138
1134285638,ALLIANCE HOME HEALTHCARE & EQUIPMENT SERVICES INC,"7826 EASTERN AVE NW STE 400, WASHINGTON, DC 20012",2025451630,Home Health Agency,Home Health,Agencies,38.98507434575,-77.027367393797
1740346204,WALTER REED ARMY HEALTHCARE SYSTEM,"6900 GEORGIA AVE NW, BLDG 1 RM A-126, WASHINGTON, DC 20307",2027820145,Military Hospital,Military Hospital,Hospitals,38.975877329852,-77.026726607995
1902962285,SIERRA INTERNATIONAL PHARMACAUTICAL,"650 PENNSYLVANIA AVE SE, WASHINGTON, DC 20003",2025480008,Community/Retail Pharmacy,Pharmacy,Suppliers,38.8852721,-76.9969902
1962559104,STODDARD BAPTIST HOME,"1818 NEWTON ST NW, WASHINGTON, DC 20010",2023287400,Skilled Nursing Facility,Skilled Nursing Facility,Nursing & Custodial Care Facilities,38.934114911723,-77.042096358585
1194882589,CARLS PLACE INC,"404 NEWCOMB ST SE, WASHINGTON, DC 20032",2022854682,Intellectual and/or Developmental Disabilities Residential Treatment Facility,"Residential Treatment Facility, Intellectual and/or Developmental Disabilities",Residential Treatment Facilities,38.847950340964,-77.002672536506
1720145949,BEHAVIOR HEALTHCARE & DIGNOSTIC SERVICES,"1012 14TH ST NW, SUITE 1025, WASHINGTON, DC 20005",2027376000,School Counselor,Counselor,Behavioral Health & Social Service Providers,38.90271125462,-77.032029830792
1811054273,CHOICES UNLIMITED INC.,"1801 MONROE ST NE, WASHINGTON, DC 20018",2022693853,Developmentally Disabled Services Day Training Agency,"Day Training, Developmentally Disabled Services",Agencies,38.933057261185,-76.979533366312
1588711329,STEVEN B. HOPPING M.D.,"2440 M ST NW, SUITE #205, WASHINGTON, DC 20037",2027853175,Ambulatory Surgical Clinic/Center,Clinic/Center,Ambulatory Health Care Facilities,38.905202872095,-77.052192324572
1750439956,"PETER E. LAVINE, M.D.","1145 19TH ST NW, SUITE 710, WASHINGTON, DC 20036",2022238600,Exclusive Provider Organization,Exclusive Provider Organization,Managed Care Organizations,38.904609776957,-77.04338007618
1265580971,BROWN'S EDUCATIONAL CONSULTING,"1930 MARTIN LUTHER KING JR AVE SE, 2ND FLOOR, WASHINGTON, DC 20020",2026100120,Professional Counselor,Counselor,Behavioral Health & Social Service Providers,38.866761200675,-76.988841606605
1265580666,"CAROL E. ALTSTATT, LCSWC","2 WRAMC RM 2J38, 6900 GEORGIA AV NW, WASHINGTON, DC 20307",2027827250,Clinical Social Worker,Social Worker,Behavioral Health & Social Service Providers,38.9765333,-77.0293903
1255489092,PHYSICAL AND MASSAGE THERAPY ASSOCIATES LLC,"4000 ALBEMARLE ST NW, #501, WASHINGTON, DC 20016",2029662033,Physical Therapy Clinic/Center,Clinic/Center,Ambulatory Health Care Facilities,38.947842868436,-77.078599477266
