NPI,Provider Name,Full Address,Phone,Specialty,Specialty_Classification,Specialty_Grouping,Latitude,Longitude
1053314237,"INTEGRATED CONCEPTS, INC","3807 ACADEMY PARKWAY S NE, ALBUQUERQUE, NM 87109",5053459299,Durable Medical Equipment & Medical Supplies,Durable Medical Equipment & Medical Supplies,Suppliers,35.156043218352,-106.601966709125
1316940216,PROFESSIONAL HOME HEALTH CARE DE SANTA FE Y LOS ALAMOS,"10 CALLE MEDICO, SANTA FE, NM 87505",5059828581,Home Health Agency,Home Health,Agencies,35.65768299618,-105.941092413851
1912900754,ANESTHESIA ASSOCIATES OF NEW MEXICO P C,"1100 CENTRAL AVE SE, ALBUQUERQUE, NM 87106",5058411234,Specialist,Specialist,Other Service Providers,35.082314106333,-106.634945215281
1053314831,"LAS CLINICAS DEL NORTE, INCORPORATED","HIGHWAY 571 #28, EL RITO, NM 87530",5755814728,Federally Qualified Health Center (FQHC),Clinic/Center,Ambulatory Health Care Facilities,36.3306846,-106.1853719
1114920717,SAN MIGUEL CLINIC CORP,"108 LEGION DR STE A, LAS VEGAS, NM 87701",5054549499,Family Medicine Physician,Family Medicine,Allopathic & Osteopathic Physicians,35.6188908,-105.219915
1427051002,CLAYTON HEALTH SYSTEMS INC,"300 WILSON STREET, CLAYTON, NM 88415",5753742585,Critical Access Hospital,General Acute Care Hospital,Hospitals,36.455083374858,-103.193267584999
1316940026,SANTA FE COUNTY,"35 CAMINO JUSTICIA, SANTA FE, NM 87508",5059923071,Land Ambulance,Ambulance,Transportation Services,35.563674598677,-106.051637565537
1568465052,"J&J HOME CARE, INC.","1301 W GRAND AVE, ARTESIA, NM 88210",5757462892,Home Health Agency,Home Health,Agencies,32.838867299519,-104.412784835183
1235132820,SIERRA HEALTH CARE INC,"1400 N SILVER ST, TRUTH OR CONSEQUENCES, NM 87901",5758947855,Nursing Facility/Intermediate Care Facility,Nursing Facility/Intermediate Care Facility,Nursing & Custodial Care Facilities,33.14437897772,-107.237955152167
1467455766,"CLAYTON HEALTH SYSTEMS, INC","300 WILSON ST, CLAYTON, NM 88415",5753742585,Home Health Agency,Home Health,Agencies,36.455083374858,-103.193267584999
1487657862,FILLMORE EYE CLINIC INCORPORATED,"1124 10TH ST, ALAMOGORDO, NM 88310",5754341200,Ambulatory Surgical Clinic/Center,Clinic/Center,Ambulatory Health Care Facilities,32.899788362344,-105.948546723554
1013910348,BASIN HOME HEALTH INC.,"200 N ORCHARD AVE, FARMINGTON, NM 87401",5053258231,Community Based Hospice Care Agency,"Hospice Care, Community Based",Agencies,36.730345900026,-108.205237557773
1396748661,ZUNI HOME HEALTH CARE AGENCY,"301 N ROUTE, BLDG #52, ZUNI, NM 87327",5057825544,Home Health Agency,Home Health,Agencies,35.0694767,-108.8484168
1912900259,ALLERGY & ASTHMA CENTER OF THE SOUTHWEST,"1141 MALL DR, STE B, LAS CRUCES, NM 88011",5755222400,Allergy & Immunology Physician,Allergy & Immunology,Allopathic & Osteopathic Physicians,32.306008782954,-106.742954279843
1346242575,"NEW MEXICO HEART INSTITUTE, LLC","502 ELM ST. NE, ALBUQUERQUE, NM 87102",5058411000,Cardiovascular Disease Physician,Internal Medicine,Allopathic & Osteopathic Physicians,35.087283956525,-106.637687015688
1780686907,ZUNI MEDICAL SUPPLY ENTERPRISE,"BUILDING 52 ROUTE 301 NORTH, ZUNI, NM 87327",5057822434,Durable Medical Equipment & Medical Supplies,Durable Medical Equipment & Medical Supplies,Suppliers,35.084973635231,-108.789115769574
1073517058,ROOSEVELT COUNTY SPECIAL HOSPITAL DISTRICT,"42121 US HIGHWAY 70, PORTALES, NM 88130",5753591800,General Acute Care Hospital,General Acute Care Hospital,Hospitals,34.169303778998,-103.363083367178
1548264351,"PREMIER ANESTHESIA OF NEW MEXICO, LLP","1720 WYOMING BLVD NE, ALBUQUERQUE, NM 87112",5052929200,Anesthesiology Physician,Anesthesiology,Allopathic & Osteopathic Physicians,35.100836598408,-106.550712124729
1679578066,"REHABILITATION HOSPITAL OF SOUTHERN NEW MEXICO, INC","4441 E LOHMAN AVE, LAS CRUCES, NM 88011",5055216400,Rehabilitation Hospital,Rehabilitation Hospital,Hospitals,32.324612846995,-106.724747749958
1215932587,"MOUNTAIN HOME HEALTH CARE, INC.","630 PASEO DEL PUEBLO SUR, # 180, TAOS, NM 87571",5057581024,Community Based Hospice Care Agency,"Hospice Care, Community Based",Agencies,36.396129315739,-105.579142914444
1780689034,EL CENTRO FAMILY HEALTH,"538 N PASEO DE ONATE, ESPANOLA, NM 87532",5057537218,Federally Qualified Health Center (FQHC),Clinic/Center,Ambulatory Health Care Facilities,35.9982434,-106.085831
1053316208,"SOUTHWEST FAMILY MEDICINE, PC","1318 E 32ND ST, FL 1, SILVER CITY, NM 88061",5053885170,Durable Medical Equipment & Medical Supplies,Durable Medical Equipment & Medical Supplies,Suppliers,32.79546916322,-108.260221592447
1548265713,MILAGRO MEDICAL GROUP PC,"504 ELM ST NE, ALBUQUERQUE, NM 87102",5057242005,Hospitalist Physician,Hospitalist,Allopathic & Osteopathic Physicians,35.087397374053,-106.63766571971
1881699031,"NEW MEXICO PROSTHETIC-ORTHOTIC CENTER, INC","2515 N KENTUCKY AVE, ROSWELL, NM 88201",5056230344,Prosthetic/Orthotic Supplier,Prosthetic/Orthotic Supplier,Suppliers,33.423591655163,-104.52730415984
1821093378,CALMAR INC.,"5010 LOMAS BLVD NE, ALBUQUERQUE, NM 87110",5052561610,Durable Medical Equipment & Medical Supplies,Durable Medical Equipment & Medical Supplies,Suppliers,35.087367822288,-106.589101697323
1689670101,NEW MEXICO PHYSICAL THERAPISTS INC,"4824 MCMAHON BLVD NW, STE 101, ALBUQUERQUE, NM 87114",5058973575,Physical Therapy Clinic/Center,Clinic/Center,Ambulatory Health Care Facilities,35.206809467669,-106.678214604084
1497751911,NEW MEXICO PHYSICAL THERAPISTS INC,"2201 SAN PEDRO DR NE STE 103, ALBUQUERQUE, NM 87110",5052969521,Physical Therapy Clinic/Center,Clinic/Center,Ambulatory Health Care Facilities,35.101275282747,-106.577641963607
1306842828,NEW MEXICO PHYSICAL THERAPISTS INC,"3301 COORS BLVD NW, STE K2, ALBUQUERQUE, NM 87120",5058438700,Physical Therapy Clinic/Center,Clinic/Center,Ambulatory Health Care Facilities,35.119862968995,-106.701791922007
1730185158,PODIATRY ASSOCIATES OF NEW MEXICO LTD,"8300 CARMEL AVE NE, STE 501, ALBUQUERQUE, NM 87122",5057971001,Foot & Ankle Surgery Podiatrist,Podiatrist,Podiatric Medicine & Surgery Service Providers,35.175663040497,-106.552562395763
1144226473,THE CENTER FOR PHYSICAL THERAPY AND REHABILITATION INC,"435 SAINT MICHAELS DR, STE A101, SANTA FE, NM 87505",5059828860,Physical Therapy Clinic/Center,Clinic/Center,Ambulatory Health Care Facilities,35.655964166742,-105.94145037809
1275539504,"BLUE HORSESHOE, INC.","315 W COUNTRY CLUB RD, ROSWELL, NM 88201",5056276256,Home Health Agency,Home Health,Agencies,33.423326565537,-104.52580518643
1720084999,"REHOBOTH MCKINLEY CHRISTIAN HEALTH CARE SERVICES, INC.","1901 REDROCK DRIVE, GALLUP, NM 87301",5058637000,Medicare Defined Swing Bed Hospital Unit,Medicare Defined Swing Bed Unit,Hospital Units,35.507991810056,-108.727222610138
1952307274,SOUTHWEST THERAPISTS INC,"118 S IRON ST, DEMING, NM 88030",5055462649,Physical Therapy Clinic/Center,Clinic/Center,Ambulatory Health Care Facilities,32.268044916604,-107.761230581811
1952307126,MED FLIGHT AIR AMBULANCE INC,"2301 YALE BLVD SE, STE D3, ALBUQUERQUE, NM 87106",5058424433,Air Ambulance,Ambulance,Transportation Services,35.056394411608,-106.6220781758
1326044512,INFECTIOUS DISEASES AND INTERNAL MEDICINE,"5901 HARPER DR NE, ALBUQUERQUE, NM 87109",5058483730,Specialist,Specialist,Other Service Providers,35.153142396814,-106.585618987872
1740286863,"LA CLINICA DE FAMILIA, INCORPORATED","385 CALLE DE ALEGRA, BLDG. A, LAS CRUCES, NM 88005",5755261105,Federally Qualified Health Center (FQHC),Clinic/Center,Ambulatory Health Care Facilities,32.29099,-106.7719822
1356347439,RENAL MEDICINE ASSOCIATES LTD.,"3821 MASTHEAD ST NE, ALBUQUERQUE, NM 87109",5059987400,Specialist,Specialist,Other Service Providers,35.166480635953,-106.600634895693
1033115050,NEW MEXICO PHYSICAL THERAPISTS INC,"2211 MAIN ST NE, STE. C, LOS LUNAS, NM 87031",5058851677,Physical Therapy Clinic/Center,Clinic/Center,Ambulatory Health Care Facilities,34.804392554066,-106.705520179597
1063418960,WOMENS SPECIALISTS OF NEW MEXICO LTD,"6320 RIVERSIDE PLAZA LN NW STE B, ALBUQUERQUE, NM 87120",5058436168,Obstetrics & Gynecology Physician,Obstetrics & Gynecology,Allopathic & Osteopathic Physicians,35.156430061456,-106.679944278465
1609873900,LOWELLS PHARMACY LLC,"612 N 13TH ST, STE A, ARTESIA, NM 88210",5757466681,Pharmacy,Pharmacy,Suppliers,32.84810788938,-104.412670941462
1750388963,DULCE HEALTH CENTER,"500 NORTH MUNDO, DULCE, NM 87528",5057593291,Federal Public Health Clinic/Center,Clinic/Center,Ambulatory Health Care Facilities,36.9131036,-106.9645457
1619974763,DR. BRIAN DELAHOUSSAYE,"3530 FOOTHILLS RD, LAS CRUCES, NM 88011",5055326054,Health Maintenance Organization,Health Maintenance Organization,Managed Care Organizations,32.314483225099,-106.738825646682
1972500957,LA VIDA LLENA,"10501 LAGRIMA DE ORO RD NE, ALBUQUERQUE, NM 87111",5052966700,Skilled Nursing Facility,Skilled Nursing Facility,Nursing & Custodial Care Facilities,35.132065208059,-106.521580649464
1962400663,"LOS ALAMOS VISITING NURSE SERVICE, INC.","109 CENTRAL PARK SQ, LOS ALAMOS, NM 87544",5056622525,Home Health Agency,Home Health,Agencies,35.8818962,-106.3001176
1114924024,SOUTHWEST NEUROSURGICAL ASSOCIATES PC,"8080 ACADEMY RD NE, SUITE B, ALBUQUERQUE, NM 87111",5052440080,Neurological Surgery Physician,Neurological Surgery,Allopathic & Osteopathic Physicians,35.146512579348,-106.552775166736
1306843180,HIDALGO MEDICAL SERVICES,"530 DE MOSS ST, HIDALGO MEDICAL SERVICES, LORDSBURG, NM 88045",5755428384,Federally Qualified Health Center (FQHC),Clinic/Center,Ambulatory Health Care Facilities,32.339020976625,-108.707653595136
1275531535,ENMU-ROSWELL,"809 W ALAMEDA ST, ROSWELL, NM 88203",5056256975,Nurse Practitioner,Nurse Practitioner,Physician Assistants & Advanced Practice Nursing Providers,33.390979902334,-104.53337705651
1790783033,"DEL & ASSOCIATES NURSING SERVICE, INC.","418 N TURNER ST, HOBBS, NM 88240",5053937355,Home Health Agency,Home Health,Agencies,32.704195908909,-103.13613835318
1902804156,"CEDAR RIDGE INN, INC.","800 SAGUARO TRL, FARMINGTON, NM 87401",5055986000,Skilled Nursing Facility,Skilled Nursing Facility,Nursing & Custodial Care Facilities,36.775194935809,-108.19307984332
1538167689,LIN-MAR DURABLE MEDICAL EQUIPMENT,"201 W BROADWAY ST, HOBBS, NM 88240",5053977070,Oxygen Equipment & Supplies (DME),Durable Medical Equipment & Medical Supplies,Suppliers,32.700744263523,-103.137534530143
1730188426,ROYCE E. JONES & JOHN D. CALEY PTR,"2100 N DR MARTIN LUTHER KING JR BLVD, CLOVIS, NM 88101",5736865550,Certified Registered Nurse Anesthetist,"Nurse Anesthetist, Certified Registered",Physician Assistants & Advanced Practice Nursing Providers,34.419319107024,-103.231828103175
1346249968,GUADALUPE COUNTY,"117 CAMINO DE VIDA, 100, SANTA ROSA, NM 88435",5754723417,Clinic/Center,Clinic/Center,Ambulatory Health Care Facilities,34.929612940971,-104.694382038694
1205835808,DEMING CLINIC CORPORATION,"905 S 8TH ST STE A, DEMING, NM 88030",5755437200,Obstetrics & Gynecology Physician,Obstetrics & Gynecology,Allopathic & Osteopathic Physicians,32.259110777647,-107.768680688792
1780683292,WOMEN'S MEDICAL CENTER LLP,"2000 W 21ST ST, SUITE A-1, CLOVIS, NM 88101",5057628055,Obstetrics & Gynecology Physician,Obstetrics & Gynecology,Allopathic & Osteopathic Physicians,34.419327572351,-103.229593756854
1568461911,"CASA ALEGRE PEDIATRICS, LLC","532 N TELSHOR BLVD, SUITE G, LAS CRUCES, NM 88011",5055325912,Pediatrics Physician,Pediatrics,Allopathic & Osteopathic Physicians,32.323622108262,-106.752029633409
1588663694,CECIL C SANDOVAL DDS PA,"601 DALIES AVE, BELEN, NM 87002",5058648912,Dentist,Dentist,Dental Providers,34.661010908904,-106.774504655173
1891794731,CARLSBAD MENTAL HEALTH CENTER,"914 N CANAL ST, CARLSBAD, NM 88220",5058854836,Clinical Social Worker,Social Worker,Behavioral Health & Social Service Providers,32.431417216316,-104.228703997449
1245239185,MJRX II LLC,"1445 WYOMING BLVD NE, ALBUQUERQUE, NM 87112",5052994496,Long Term Care Pharmacy,Pharmacy,Suppliers,35.095828448519,-106.550794084713
1710987680,CITY OF ARTESIA,"3300 W MAIN ST, ARTESIA, NM 88210",5757480880,Land Ambulance,Ambulance,Transportation Services,32.842689891539,-104.439538746384
1568462497,JEFFREY S SOLLINS MD PC,"7510 MONTGOMERY BLVD NE, SUITE 203, ALBUQUERQUE, NM 87109",5058555545,Internal Medicine Physician,Internal Medicine,Allopathic & Osteopathic Physicians,35.13069205458,-106.562034166739
1891795589,BLOOMFIELD CHIROPRACTOR CENTER INC,"308 N 1ST ST, BLOOMFIELD, NM 87413",5056321111,Chiropractor,Chiropractor,Chiropractic Providers,36.713508163465,-107.979047657094
1366442865,TURQUOISE TRAIL PHYSICAL THERAPY AND REHABILITATION,"786A N SAINT FRANCIS DR, SANTA FE, NM 87501",5059842032,Rehabilitation Clinic/Center,Clinic/Center,Ambulatory Health Care Facilities,35.7001809,-105.9526519
1629078126,TURQUOISE TRAIL PHYSICAL THERAPY,"4930 MCLEOD RD NE, ALBUQUERQUE, NM 87109",5058842032,Rehabilitation Clinic/Center,Clinic/Center,Ambulatory Health Care Facilities,35.138234805861,-106.588441717912
1356341853,TURQUOISE TRAIL PHYSICAL THERAPY AND REHABILITATION,"2521 CAMINO ENTRADA, SANTA FE, NM 87507",5059842032,Rehabilitation Clinic/Center,Clinic/Center,Ambulatory Health Care Facilities,35.634696302613,-106.021179672508
1558361089,TIERRA ALTA ANESTHESIA,"1010 SPRUCE ST, ESPANOLA, NM 87532",5736865550,Certified Registered Nurse Anesthetist,"Nurse Anesthetist, Certified Registered",Physician Assistants & Advanced Practice Nursing Providers,35.997068400275,-106.085951194385
1427058510,"SAN JUAN REGIONAL MEDICAL CENTER, INC.","801 W MAPLE ST, FARMINGTON, NM 87401",5053255011,Audiologist,Audiologist,"Speech, Language and Hearing Service Providers",36.724258033614,-108.215630345724
1679573778,"SAN JUAN REGIONAL REHABILITATION HOSPITAL, INC.","525 S. SCHWARTZ, FARMINGTON, NM 87401",5056092625,Rehabilitation Hospital,Rehabilitation Hospital,Hospitals,36.725382214625,-108.214935723173
1477554855,INTEGRATED CONCEPTS,"3807 ACADEMY PARKWAY S NE, ALBUQUERQUE, NM 87109",5053459299,Pharmacy,Pharmacy,Suppliers,35.156043218352,-106.601966709125
1114928298,ZIA FAMILY MEDICINE PC,"4351 E LOHMAN AVE, STE 208, LAS CRUCES, NM 88011",5055321456,Family Medicine Physician,Family Medicine,Allopathic & Osteopathic Physicians,32.324043464961,-106.725960080479
1265434807,SOUTHWEST HEALTHCARE ASSOCIATES LLC,"780 S WALNUT ST, BLDG #7, LAS CRUCES, NM 88001",5755272600,Internal Medicine Physician,Internal Medicine,Allopathic & Osteopathic Physicians,32.310624844297,-106.754090177196
1598757668,PAUL FEIL MD PC,"2437 S TELSHOR BLVD, LAS CRUCES, NM 88011",5755222777,Pulmonary Disease Physician,Internal Medicine,Allopathic & Osteopathic Physicians,32.292923,-106.7341231
1942292149,IMMEDICARE CARE CLINIC PC,"721 MECHEM DR, SIERRA MALL, RUIDOSO, NM 88345",5056305300,Family Medicine Physician,Family Medicine,Allopathic & Osteopathic Physicians,33.346998277547,-105.675133912752
1215929435,SRIRENGAM MURALIDHASAN MD LLC,"1605 EL PASEO RD, LAS CRUCES, NM 88001",5755272600,Family Medicine Physician,Family Medicine,Allopathic & Osteopathic Physicians,32.294747668475,-106.768321875095
1649262502,KARE INC,"100 LLANO ST., AZTEC, NM 87410",5053346411,Community/Retail Pharmacy,Pharmacy,Suppliers,36.819389997428,-107.996442049498
1750373692,"RADIATION ONCOLOGY ASSOCIATES, P.A.","4650 JEFFERSON LN NE, ALBUQUERQUE, NM 87109",5058899639,Therapeutic Radiology Physician,Radiology,Allopathic & Osteopathic Physicians,35.13414893943,-106.593089096163
1447242250,PRECISION EYE CENTER,"8000 PASEO DEL NORTE NE, BUILDING E, ALBUQUERQUE, NM 87122",5052911711,Optometrist,Optometrist,Eye and Vision Services Providers,35.1730036,-106.5581764
1154313773,CITY OF LOVINGTON,"213 S LOVE ST, LOVINGTON, NM 88260",5753962359,Ambulance,Ambulance,Transportation Services,32.946894525365,-103.347344138959
1831181122,CITY OF JAL GENERAL FUND,"309 MAIN, JAL, NM 88252",5753953340,Land Ambulance,Ambulance,Transportation Services,32.1122604,-103.1942491
1548253701,HIDALGO MEDICAL SERVICES,"56 PANTHER BOULEVARD, ANIMAS, NM 88020",5755482742,Federally Qualified Health Center (FQHC),Clinic/Center,Ambulatory Health Care Facilities,31.949558573526,-108.811973597126
1255324562,HIDALGO MEDICAL SERVICES,"3200 SILVER STREET, SILVER CITY, NM 88061",5755341015,Student Health Clinic/Center,Clinic/Center,Ambulatory Health Care Facilities,32.79476563152,-108.267140643035
1780677039,CIBOLA GENERAL HOSPITAL CORPORATION,"1016 E ROOSEVELT AVE, GRANTS, NM 87020",5052875300,Mental Health Clinic/Center (Including Community Mental Health Center),Clinic/Center,Ambulatory Health Care Facilities,35.16124270558,-107.82744813277
1033102314,DRS. GUTOWSKI & SONNENMOSER,"159 MESCALERO TRL STE 1, RUIDOSO, NM 88345",5752575029,Optometrist,Optometrist,Eye and Vision Services Providers,33.32184709993,-105.634301809501
1912990151,DERMATOLOGY CONSULTANTS OF ALBUQUERQUE PC,"8316 KASEMAN CT NE, ALBUQUERQUE, NM 87110",5052925850,Dermatology Physician,Dermatology,Allopathic & Osteopathic Physicians,35.092432892756,-106.552225042977
1265425425,HIDALGO MEDICAL SERVICES,"114 W 11TH ST, SILVER CITY, NM 88061",5753881511,Federally Qualified Health Center (FQHC),Clinic/Center,Ambulatory Health Care Facilities,32.776690676564,-108.27635863609
1144212473,"LAS CRUCES ORTHOPAEDIC ASSOCIATES, PC","675 AVENIDA DE MESILLA, LAS CRUCES, NM 88005",5755253535,Orthopaedic Surgery Physician,Orthopaedic Surgery,Allopathic & Osteopathic Physicians,32.2927371,-106.7862679
1295728301,LUNG & SLEEP ASSOCIATES OF LAS CRUCES LLC,"2735 NORTHRISE DR, LAS CRUCES, NM 88011",5755324344,Critical Care Medicine (Internal Medicine) Physician,Internal Medicine,Allopathic & Osteopathic Physicians,32.35368141601,-106.760210391611
1730172735,MUGLIN LLC,"711 W ALAMEDA ST, ROSWELL, NM 88203",5056234448,Internal Medicine Physician,Internal Medicine,Allopathic & Osteopathic Physicians,33.390986544481,-104.531966146997
1871586081,ARROYO FOOT & ANKLE CLINIC INC,"780 S WALNUT ST, STE 3, LAS CRUCES, NM 88001",5055253980,Podiatrist,Podiatrist,Podiatric Medicine & Surgery Service Providers,32.310624844297,-106.754090177196
1215920426,"NEW MEXICO BRAIN INSTITUTE, INC.","108 COTTONWOOD DR, ALAMOGORDO, NM 88310",5754340901,Pain Medicine (Psychiatry & Neurology) Physician,Psychiatry & Neurology,Allopathic & Osteopathic Physicians,32.934128626392,-105.957264100784
1487647434,X PRESS CARE LLP,"2021 W 21ST ST, CLOVIS, NM 88101",5759357777,Urgent Care Clinic/Center,Clinic/Center,Ambulatory Health Care Facilities,34.41921298095,-103.229160214875
1427041490,HIDALGO MEDICAL SERVICES,"415 HWY 211, GILA, NM 88038",5755354384,Federally Qualified Health Center (FQHC),Clinic/Center,Ambulatory Health Care Facilities,32.964220132988,-108.577525783749
1073506911,HIDALGO MEDICAL SERVICES,"1107 TOM FOY BLVD, BAYARD, NM 88023",5755345069,Student Health Clinic/Center,Clinic/Center,Ambulatory Health Care Facilities,32.7581172607,-108.140556515761
1306839253,CITY OF SANTA ROSA,"141 S 5TH ST, SANTA ROSA, NM 88435",5054723404,Land Ambulance,Ambulance,Transportation Services,34.942056147557,-104.686109821394
1043203904,"AZTEC CHIROPRACTIC CENTER, P.C.","318 E. CHUSKA, AZTEC, NM 87410",5053343633,Chiropractor,Chiropractor,Chiropractic Providers,36.82058779476,-107.992829026391
1801889878,HIDALGO MEDICAL SERVICES,"2672 NM HWY 35, SAN LORENZO, NM 88041",5758001467,Federally Qualified Health Center (FQHC),Clinic/Center,Ambulatory Health Care Facilities,32.812185468675,-107.933163041901
1013900794,"RIO GRANDE MEDICAL GROUP, LTD","4371 E LOHMAN AVE, LAS CRUCES, NM 88011",5755328900,Allergy Physician,Allergy & Immunology,Allopathic & Osteopathic Physicians,32.324127192469,-106.725790210235
1164415782,MONTE BELLO MEDICAL,"3851 E LOHMAN AVE STE 4, LAS CRUCES, NM 88011",5759935611,Podiatrist,Podiatrist,Podiatric Medicine & Surgery Service Providers,32.318930177073,-106.735792879044
1760476139,NEUROLOGY ASSOCIATES OF MESILLA VALLEY PC,"3855 FOOTHILLS DRIVE, LAS CRUCES, NM 88011",5755328561,Neurology Physician,Psychiatry & Neurology,Allopathic & Osteopathic Physicians,32.319807124815,-106.736872644673
1669466900,CLOVIS VISION ASSOCIATES PA,"1217 PILE ST, CLOVIS, NM 88101",5757635522,Optometrist,Optometrist,Eye and Vision Services Providers,34.410146312715,-103.203965360632
1306830450,SAN MIGUEL CLINIC CORP DBA NORTHERN NEW MEXICO UROLOGY,"2301 7TH ST, LAS VEGAS, NM 87701",5054544000,Urology Physician,Urology,Allopathic & Osteopathic Physicians,35.617579729805,-105.225166630764
1447245667,MIMBRES PROFESSIONAL ANESTHESIA SERVICE,"1313 E 32ND ST, SILVER CITY, NM 88061",5055384000,Certified Registered Nurse Anesthetist,"Nurse Anesthetist, Certified Registered",Physician Assistants & Advanced Practice Nursing Providers,32.795505489926,-108.261525962639
1487649638,SILVER ANESTHESIA SERVICES INC,"1313 E 32ND ST, SILVER CITY, NM 88061",5055384000,Certified Registered Nurse Anesthetist,"Nurse Anesthetist, Certified Registered",Physician Assistants & Advanced Practice Nursing Providers,32.795505489926,-108.261525962639
1700871993,LCT INC,"1010 SPRUCE ST, ESPANOLA, NM 87532",5057537111,Certified Registered Nurse Anesthetist,"Nurse Anesthetist, Certified Registered",Physician Assistants & Advanced Practice Nursing Providers,35.997068400275,-106.085951194385
1710972567,JOHN MCNEILL DDS PC,"2401 E 30TH ST, BLDG 2, FARMINGTON, NM 87401",5053262611,Oral and Maxillofacial Surgery (Dentist),Dentist,Dental Providers,36.755998646792,-108.171611484425
1578558235,"RODEO FAMILY MEDICINE, P.C.","4001 RODEO RD, SANTA FE, NM 87507",5054718994,Primary Care Clinic/Center,Clinic/Center,Ambulatory Health Care Facilities,35.638876655708,-106.010067100297
1922094770,STATE OF NEW MEXICO,"72 GAIL HARRIS AVE, ROSWELL, NM 88203",5753473400,Community/Behavioral Health Agency,Community/Behavioral Health,Agencies,33.308722543589,-104.522497062528
1316933344,SF SPORTS MED & REHAB INC,"104 OLD LAS VEGAS HWY, SANTA FE, NM 87505",5059924995,Physical Therapist,Physical Therapist,"Respiratory, Developmental, Rehabilitative and Restorative Service Providers",35.625773278328,-105.920585998932
1386630242,VILLAGE OF CAUSEY,"116 MAIN ST, BOX 79, CAUSEY, NM 88113",5052734249,Intermediate Emergency Medical Technician,"Emergency Medical Technician, Intermediate",Emergency Medical Service Providers,33.8809714,-103.1268063
1043207285,DAVID N EWING MD PC,"2741 INDIAN SCHOOL RD NE, ALBUQUERQUE, NM 87106",5052556002,Psychiatry Physician,Psychiatry & Neurology,Allopathic & Osteopathic Physicians,35.102085646411,-106.614996325085
1720075880,ACTIVE SOLUTIONS THERAPY SERV INC,"1 LINNIE CT, EDGEWOOD, NM 87015",5052867838,Orthopedic Physical Therapist,Physical Therapist,"Respiratory, Developmental, Rehabilitative and Restorative Service Providers",35.065835510533,-106.202517735191
1649267618,ROSWELL CLINIC CORP,"350 W COUNTRY CLUB RD, STE 201, ROSWELL, NM 88201",8888015554,Internal Medicine Physician,Internal Medicine,Allopathic & Osteopathic Physicians,33.423217790321,-104.526500902823
1083601967,"DEB JONES THERAPIES, INC.","1337 GUSDORF RD, SUITE G, TAOS, NM 87571",5757584337,Durable Medical Equipment & Medical Supplies,Durable Medical Equipment & Medical Supplies,Suppliers,36.371940056072,-105.591410051077
1407843311,FAMILY DIMENSIONS INC.,"1201 EUBANK BLVD NE, SUITE 6, ALBUQUERQUE, NM 87112",5052921554,Professional Counselor,Counselor,Behavioral Health & Social Service Providers,35.0920928,-106.5332559
1598752370,"CROSSROADS COUNSELING, INC.","207 N UNION AVE, SUITE G, ROSWELL, NM 88201",5056240486,Clinical Social Worker,Social Worker,Behavioral Health & Social Service Providers,33.394335237751,-104.536025873067
1598753246,NEW MEXICO EAR NOSE & THROAT SPECIALISTS PC,"401 EDITH BLVD NE, ALBUQUERQUE, NM 87102",5052438030,Otolaryngology Physician,Otolaryngology,Allopathic & Osteopathic Physicians,35.085867725607,-106.641739782147
1639167497,TOWN OF TATUM,"401 E BROADWAY, TATUM, NM 88267",5053984633,Ambulance,Ambulance,Transportation Services,33.2569395,-103.3089725
1346238110,OTERO COUNTY COUNCIL ON ALCOHOL ABUSE AND ALCOHOLISM,"850 WRIGHT AVE, ALAMOGORDO, NM 88310",5054378942,Substance Abuse Rehabilitation Facility,Substance Abuse Rehabilitation Facility,Residential Treatment Facilities,32.853777962588,-105.979328644219
1073501508,MEDICAL ASSOCIATES OF NORTHERN NEW MEXICO,"3917 WEST RD, SUITE A, LOS ALAMOS, NM 87544",5056618900,Family Medicine Physician,Family Medicine,Allopathic & Osteopathic Physicians,35.881854566569,-106.321780568784
1164410528,OMNISLEEP LLC,"3810 MASTHEAD ST NE, ALBUQUERQUE, NM 87109",5058438758,Neurology Physician,Psychiatry & Neurology,Allopathic & Osteopathic Physicians,35.166366044577,-106.600691611602
1215925417,FORT BAYARD MEDICAL CENTER,"100 CALLE EL CENTRO, BAYARD, NM 88036",5055373302,Skilled Nursing Facility,Skilled Nursing Facility,Nursing & Custodial Care Facilities,32.7950305,-108.1506521
1912995242,"TRI-COUNTY COMMUNITY SERVICES, INC","105 PASEO DEL CANON WEST, SUITE A, TAOS, NM 87571",5757585857,Case Management Agency,Case Management,Agencies,36.38019533077,-105.590752689397
1417945494,BESTCARE HIGHLAND LLC,"717 ENCINO PL NE, STE 1, ALBUQUERQUE, NM 87102",5052433777,Pharmacy,Pharmacy,Suppliers,35.088052921758,-106.632318946944
1891783767,MONTGOMERY HEALTH OFFICES,"200 W LEA ST, HOBBS, NM 88240",5053917477,Community Health Clinic/Center,Clinic/Center,Ambulatory Health Care Facilities,32.709247346537,-103.13753844492
1477542041,SUMMIT REHABILITATION LLC,"722 E FLORIDA ST, DEMING, NM 88030",5055462555,Physical Therapist,Physical Therapist,"Respiratory, Developmental, Rehabilitative and Restorative Service Providers",32.253975549392,-107.750596607183
1306835970,STEVENS CHIROPRACTIC CENTER LLC,"722 E FLORIDA ST, DEMING, NM 88030",5055462555,Chiropractor,Chiropractor,Chiropractic Providers,32.253975549392,-107.750596607183
1114916319,NEW MEXICO BEHAVIORAL HEALTH INSTITUTE,"3695 HOT SPRINGS BLVD, LAS VEGAS, NM 87701",5054542190,Nursing Facility/Intermediate Care Facility,Nursing Facility/Intermediate Care Facility,Nursing & Custodial Care Facilities,35.607593650248,-105.240975937471
1891784088,VASPRO INC,"10400 ACADEMY RD NE, SUITE 340, ALBUQUERQUE, NM 87111",5052981558,Nurse Practitioner,Nurse Practitioner,Physician Assistants & Advanced Practice Nursing Providers,35.154226044211,-106.523452219441
1750370847,CHILDREN'S TREATMENT CENTER,"6611 GULTON CT NE, ALBUQUERQUE, NM 87109",5052963965,Community/Behavioral Health Agency,Community/Behavioral Health,Agencies,35.153416758089,-106.600373932957
1487644464,"LAKEVIEW CHRISTIAN HOME OF THE SOUTHWEST, INC.","1300 N CANAL ST, CARLSBAD, NM 88220",5058873947,Home Health Agency,Home Health,Agencies,32.439578545352,-104.228700696992
1215927215,EAST MOUNTAIN EYE CLINIC PC,"1917 OLD ROUTE 66, EDGEWOOD PLAZA, SUITE D-1, EDGEWOOD, NM 87015",5052862020,Optometrist,Optometrist,Eye and Vision Services Providers,35.060011762263,-106.188351606747
1730179565,THE EVANGELICAL LUTHERAN GOOD SAMARITAN SOCIETY,"3025 TERRACE DR, LAS CRUCES, NM 88011",5055221362,Nursing Facility Supplies (DME),Durable Medical Equipment & Medical Supplies,Suppliers,32.293571876129,-106.733212642156
1659361418,DERMATOLOGY CENTER PC,"2525 S TELSHOR BLVD, BUILDING 15 SUITE 200, LAS CRUCES, NM 88011",5055223636,Dermatology Physician,Dermatology,Allopathic & Osteopathic Physicians,32.29096961359,-106.734797820737
1316937964,KIDSKARE P.C.,"1405 S VALLEY DR STE 200, LAS CRUCES, NM 88005",5755325437,General Practice Dentistry,Dentist,Dental Providers,32.292087367722,-106.784616709281
1982694469,HORIZON HOME HEALTH SERVICES INC,"727 E UTE ST, FARMINGTON, NM 87401",5053262525,Home Health Agency,Home Health,Agencies,36.741099080132,-108.197431150852
1043200454,BROOKHAVEN NURSING HOME,"813 4TH ST, LAS VEGAS, NM 87701",5054259304,Nursing Facility/Intermediate Care Facility,Nursing Facility/Intermediate Care Facility,Nursing & Custodial Care Facilities,35.598075507027,-105.214276997248
1932199171,"FIRST NATIONS COMMUNITY HEALTH SOURCE, INC.","5608 ZUNI RD SE, ALBUQUERQUE, NM 87108",5052626523,Clinic/Center,Clinic/Center,Ambulatory Health Care Facilities,35.072775057668,-106.583525630488
1669462800,"EDUCARE DENTAL SERVICES, INC.","7 PINEWAY BLVD, CLOVIS, NM 88101",5057624833,General Practice Dentistry,Dentist,Dental Providers,34.378631978747,-103.200664333696
1326038563,"DEMING DENTAL SERVICES, P.A.","400 S GOLD AVE, DEMING, NM 88030",5055462684,General Practice Dentistry,Dentist,Dental Providers,32.273316456189,-107.759606313432
1225028541,"ALLERGY PARTNERS, PLLC","1651 GALISTEO ST, SUITE 8, SANTA FE, NM 87505",5058209870,Allergy & Immunology Physician,Allergy & Immunology,Allopathic & Osteopathic Physicians,35.664243545465,-105.948081104638
1801886023,KACHINA MEDICAL LLC,"1090 GOAT SPRING RD, TAOS, NM 87571",5057584224,Family Medicine Physician,Family Medicine,Allopathic & Osteopathic Physicians,36.414609437799,-105.563716074282
1871584730,"NEW MEXICO CLINICAL RESEARCH & OSTEOPOROSIS CENTER, INC","300 OAK ST NE, ALBUQUERQUE, NM 87106",5058555525,Adult Medicine Physician,Family Medicine,Allopathic & Osteopathic Physicians,35.084590774131,-106.635655510423
1528059011,"RETIREMENT RANCHES, INC","2221 DILLON RD, CLOVIS, NM 88101",5057624495,Skilled Nursing Facility,Skilled Nursing Facility,Nursing & Custodial Care Facilities,34.42194868019,-103.233159858112
1447241005,THE EVANGELICAL LUTHERAN GOOD SAMARITAN SOCIETY,"840 LOBO CANYON RD, GRANTS, NM 87020",5052878868,Nursing Facility Supplies (DME),Durable Medical Equipment & Medical Supplies,Suppliers,35.162462322065,-107.833789611017
1780675330,THE EVANGELICAL LUTHERAN GOOD SAMARITAN SOCIETY,"1402 W GILCHRIST AVE, ARTESIA, NM 88210",5057469865,Nursing Facility Supplies (DME),Durable Medical Equipment & Medical Supplies,Suppliers,32.853561043236,-104.413988934835
1164413688,THE EVANGELICAL LUTHERAN GOOD SAMARITAN SOCIETY,"1203 HWY 60 W, SOCORRO, NM 87801",5058352724,Nursing Facility Supplies (DME),Durable Medical Equipment & Medical Supplies,Suppliers,34.038225436622,-106.912422555347
1235120502,ALIGNMENT OF LIFE INC,"2019 GALISTEO ST, UNIT E-2, SANTA FE, NM 87505",5059826886,Chiropractor,Chiropractor,Chiropractic Providers,35.657638203956,-105.952527492799
1891786083,THE EVANGELICAL LUTHERAN GOOD SAMARITAN SOCIETY,"1701 N TURNER ST, HOBBS, NM 88240",5053933156,Nursing Facility Supplies (DME),Durable Medical Equipment & Medical Supplies,Suppliers,32.68400525867,-103.137752937457
1861473027,ALTAF AHMED MD PA,"4441 E LOHMAN AVE, LAS CRUCES, NM 88011",5054000133,Physical Medicine & Rehabilitation Physician,Physical Medicine & Rehabilitation,Allopathic & Osteopathic Physicians,32.324612846995,-106.724747749958
1033190210,INTEGRITY CLINICAL SYSTEMS INC,"1510 WYOMING BLVD NE, SUITE A, ALBUQUERQUE, NM 87112",5052931200,Oxygen Equipment & Supplies (DME),Durable Medical Equipment & Medical Supplies,Suppliers,35.096108136078,-106.550654951867
1922089028,THE EVANGELICAL LUTHERAN GOOD SAMARITAN SOCIETY,"1600 W AVE I, LOVINGTON, NM 88260",5053965212,Nursing Facility Supplies (DME),Durable Medical Equipment & Medical Supplies,Suppliers,32.938980825186,-103.367506093758
1568443570,THE EVANGELICAL LUTHERAN GOOD SAMARITAN SOCIETY,"500 CARE LN, AZTEC, NM 87410",5053349445,Nursing Facility Supplies (DME),Durable Medical Equipment & Medical Supplies,Suppliers,36.834262838613,-108.02138917811
1932180825,DEBORAH J HEWITT MD PC,"159 MESCALERO TRL, RUIDOSO, NM 88345",5052577505,Obstetrics & Gynecology Physician,Obstetrics & Gynecology,Allopathic & Osteopathic Physicians,33.32184709993,-105.634301809501
1477534261,HEARTLAND CARE INC.,"1604 W 18TH ST, PORTALES, NM 88130",5053594719,Skilled Nursing Facility,Skilled Nursing Facility,Nursing & Custodial Care Facilities,34.17121081086,-103.352434769565
1649251679,CLOVIS SURGERY CENTER LLC,"1820 W 21ST ST, CLOVIS, NM 88101",5757622207,Ambulatory Surgical Clinic/Center,Clinic/Center,Ambulatory Health Care Facilities,34.419327572159,-103.225871980804
1255312997,"CARING ANGELS, LLC","2207 FERGUSON RD, CARLSBAD, NM 88220",5759413030,Home Health Agency,Home Health,Agencies,32.370814698482,-104.179468555874
1396726063,THE EVANGELICAL LUTHERAN GOOD SAMARITAN SOCIETY,"3101 NORTH FLORIDA AVENUE, ALAMOGORDO, NM 88310",5054340033,Nursing Facility Supplies (DME),Durable Medical Equipment & Medical Supplies,Suppliers,32.92793897206,-105.952450317156
1063493427,ADVANCED ENDODONTICS,"7520 MONTGOMERY BLVD, E1, ALBUQUERQUE, NM 87109",5057971212,Endodontics,Dentist,Dental Providers,35.130693604666,-106.561795451417
1073594446,"SOUTHEASTERN NEW MEXICO SURGICAL CENTER, LLC","113 E 19TH ST, ROSWELL, NM 88201",5056277000,Ambulatory Surgical Clinic/Center,Clinic/Center,Ambulatory Health Care Facilities,33.416016801192,-104.52105682335
1568444834,UNIVERSITY OF NEW MEXICO PSYCHIATRIC CENTER,"2600 MARBLE AVE. N.E., CONTINUING CARE CLINIC, ALBUQUERQUE, NM 87131",5052722826,Clinic/Center,Clinic/Center,Ambulatory Health Care Facilities,35.091009056768,-106.616652582923
1427030436,THE EVANGELICAL LUTHERAN GOOD SAMARITAN SOCIETY,"5201 ROMA AVE NE, ALBUQUERQUE, NM 87108",5052622311,Nursing Facility Supplies (DME),Durable Medical Equipment & Medical Supplies,Suppliers,35.085580686548,-106.587330766559
1821070871,"ACCESS HOME HEALTH, LLC","1909 CUBA AVE, STE 4, ALAMOGORDO, NM 88310",5754346222,Home Health Agency,Home Health,Agencies,32.913547515412,-105.946623044853
1740262260,BALL INVESTMENTS INC,"7 MAIN ST, CLAYTON, NM 88415",5753749121,Pharmacy,Pharmacy,Suppliers,36.451369322936,-103.185267872713
1447232897,THE EVANGELICAL LUTHERAN GOOD SAMARITAN SOCIETY,"5201 ROMA AVE NE, ALBUQUERQUE, NM 87108",5052566212,Home Health Agency,Home Health,Agencies,35.085580686548,-106.587330766559
1669455994,FOWLER ENTERPRISES INC,"2005B US ROUTE 66 WEST, MORIARTY, NM 87035",5058324011,Physical Therapist,Physical Therapist,"Respiratory, Developmental, Rehabilitative and Restorative Service Providers",35.0133439,-106.0711692
1013990142,THE EVANGELICAL LUTHERAN GOOD SAMARITAN SOCIETY,"3025 TERRACE DR, LAS CRUCES, NM 88011",5755562103,Home Health Agency,Home Health,Agencies,32.293571876129,-106.733212642156
1689657694,SILVER CITY OPHTHALMOLOGY ASSOCIATES PC,"1210 E 32ND ST, SILVER CITY, NM 88061",5055383721,Specialist,Specialist,Other Service Providers,32.79561358928,-108.263145569021
1154304038,JAMES F LUNARDON DDS MSD PA,"701 N CANYON ST, CARLSBAD, NM 88220",5758872444,Orthodontics and Dentofacial Orthopedics Dentistry,Dentist,Dental Providers,32.427476055914,-104.22766675595
1306829213,"ON SITE RADIOGRAPHY, INC.","7208 RELAMPAGO ST NW, ALBUQUERQUE, NM 87120",5058439836,Portable X-ray and/or Other Portable Diagnostic Imaging Supplier,Portable X-ray and/or Other Portable Diagnostic Imaging Supplier,Suppliers,35.119620843361,-106.717344728129
1851374433,THE FAMILY CLINIC,"1280 E 32ND ST, SILVER CITY, NM 88061",5053881242,Family Medicine Physician,Family Medicine,Allopathic & Osteopathic Physicians,32.795617305037,-108.263004370007
1245213750,SHERIDAN CHILDREN HEALTHCARE SERVICES OF NEW MEXICO INC,"4701 MONTGOMERY BLVD NE, ALBUQUERQUE, NM 87109",9548382371,Pediatrics Physician,Pediatrics,Allopathic & Osteopathic Physicians,35.131001882544,-106.591036514616
1457335986,ALTERNATIVE NURSING SERVICES INC,"1010 WASHINGTON ST NE, ALBUQUERQUE, NM 87110",5052987357,Home Health Agency,Home Health,Agencies,35.093020424509,-106.595131749871
1194709501,THE EYE PLACE CORPORATION,"429 E OLIVE ST, DEMING, NM 88030",5055464115,Ophthalmology Physician,Ophthalmology,Allopathic & Osteopathic Physicians,32.259090997626,-107.753534995037
1184608374,ERNEST L. STROMEYER DDS MS PC,"2200 EAST 20TH STREET, FARMINGTON, NM 87401",5053274872,Orthodontics and Dentofacial Orthopedics Dentistry,Dentist,Dental Providers,36.748265609272,-108.178409397451
1255315354,"SOUTHWESTERN WOMEN'S OPTIONS, LLC","522 LOMAS BLVD NE, ALBUQUERQUE, NM 87102",5052427512,Specialist,Specialist,Other Service Providers,35.089812102102,-106.640004221698
1508840117,MORA VALLEY COMMUNITY HEALTH SERVICES INC,"3 MORA VALLEY CLINIC RD, MORA, NM 87732",8772712201,Community Health Clinic/Center,Clinic/Center,Ambulatory Health Care Facilities,35.956171019116,-105.277412491251
1275518151,PRESBYTERIAN HEALTHCARE SERVICES,"9TH & WASHINGTON BLDG 356 C, CIMARRON, NM 87714",5053762402,Emergency Medicine Physician,Emergency Medicine,Allopathic & Osteopathic Physicians,36.511356041302,-104.914592241955
1629053509,PRESBYTERIAN HEALTHCARE SERVICES,"2100 MARTIN LUTHER KING JR BLVD, CLOVIS, NM 88101",5054697577,Emergency Medicine Physician,Emergency Medicine,Allopathic & Osteopathic Physicians,34.419319107024,-103.231828103175
1538144415,PRESBYTERIAN HEALTHCARE SERVICES,"471 MAIN STREET, CORONA, NM 88318",5058491561,Rural Health Clinic/Center,Clinic/Center,Ambulatory Health Care Facilities,34.248279752564,-105.594962671178
1447235320,VILLAGE OF RUIDOSO AMBULANCE,"211 SUDDERTH DR, RUIDOSO, NM 88345",5052578297,Land Ambulance,Ambulance,Transportation Services,33.323119585161,-105.630325089244
1982689865,PRESBYTERIAN HEALTHCARE SERVICES,"8300 CONSTITUTION AVE NE, ALBUQUERQUE, NM 87110",5052912000,Emergency Medicine Physician,Emergency Medicine,Allopathic & Osteopathic Physicians,35.094519052659,-106.552157472371
1508841495,LINCOLN COUNTY AMBULANCE,"211 SUDDERTH, RUIDOSO, NM 88345",5052578297,Emergency Medicine Physician,Emergency Medicine,Allopathic & Osteopathic Physicians,33.323119585161,-105.630325089244
1235114125,PRESBYTERIAN HEALTHCARE SERVICES,"710 AVENUE E, CARRIZOZO, NM 88301",5056482317,Emergency Medicine Physician,Emergency Medicine,Allopathic & Osteopathic Physicians,33.646382649624,-105.877922187253
1598740482,PRESBYTERIAN HEALTHCARE SERVICES,"8300 CONSTITUTION AVE NE, ALBUQUERQUE, NM 87110",5052915300,Emergency Medicine Physician,Emergency Medicine,Allopathic & Osteopathic Physicians,35.094519052659,-106.552157472371
1881679777,GILA OB GYN ASSOCIATES PC,"3201 RIDGELOOP, SILVER CITY, NM 88061",5055382936,Gynecology Physician,Obstetrics & Gynecology,Allopathic & Osteopathic Physicians,32.795281939898,-108.259229037158
1336124205,PRESBYTERIAN HEALTHCARE SERVICES,"1202 HIGHWAY 60 WEST, SOCORRO, NM 87801",5058351140,Internal Medicine Physician,Internal Medicine,Allopathic & Osteopathic Physicians,34.042649711594,-106.909266399722
1912982810,377TH MEDGRP-KIRTLAND,"2050A SECOND ST SE, KIRTLAND AFB, NM 87117",5058463605,Military/U.S. Coast Guard Outpatient Clinic/Center,Clinic/Center,Ambulatory Health Care Facilities,35.0560155,-106.5530302
1215912191,PRESBYTERIAN HEALTHCARE SERVICES,"1010 SPRUCE ST, ESPANOLA, NM 87532",5057537111,Emergency Medicine Physician,Emergency Medicine,Allopathic & Osteopathic Physicians,35.997068400275,-106.085951194385
1023093903,PRESBYTERIAN HEALTHCARE SERVICES,"301 E MIEL DE LUNA, TUCUMCARI, NM 88401",5054610141,Emergency Medicine Physician,Emergency Medicine,Allopathic & Osteopathic Physicians,35.156319476749,-103.723468044787
1750366639,PRESBYTERIAN HEALTHCARE SERVICES,"2217 DILLON RD, CLOVIS, NM 88101",5054697577,Emergency Medicine Physician,Emergency Medicine,Allopathic & Osteopathic Physicians,34.421951700829,-103.232892026958
1295710176,PRESBYTERIAN HEALTHCARE SERVICES,"2217 DILLON, CLOVIS, NM 88101",5059235356,Emergency Medicine Physician,Emergency Medicine,Allopathic & Osteopathic Physicians,34.4228587,-103.2323802
1093790974,BERNALILLO COUNTY HEALTH CARE CORPORATION,"4500 MONTBEL PL NE, ALBUQUERQUE, NM 87107",5057618200,Emergency Medicine Physician,Emergency Medicine,Allopathic & Osteopathic Physicians,35.132312358217,-106.620696609049
1164407052,PRESBYTERIAN HEALTHCARE SERVICES,"11 ELLIOTT BARKER LANE, ANGEL FIRE, NM 87710",5053373301,Emergency Medicine Physician,Emergency Medicine,Allopathic & Osteopathic Physicians,36.404327133418,-105.293226109572
1427033315,PRESBYTERIAN HEALTHCARE SERVICES,"301 E MIEL DE LUNA AVE, TUCUMCARI, NM 88401",5754617240,Emergency Medicine Physician,Emergency Medicine,Allopathic & Osteopathic Physicians,35.156319476749,-103.723468044787
1992781553,"TURQUOISE, LTD","955 S 2ND ST, RATON, NM 87740",5054453131,Pharmacy,Pharmacy,Suppliers,36.892489578016,-104.441272635912
1144206756,JCH INC DBA GOLDEN SERVICES HOME HEALTH AND HOSPICE,"800 W PIERCE ST, CARLSBAD, NM 88220",5758853082,Home Health Agency,Home Health,Agencies,32.435786632931,-104.235611289681
1063498517,PATHOLOGY CONSULTANTS OF NEW MEXICO,"600 N RICHARDSON AVE, ROSWELL, NM 88201",5056225600,Cytopathology Physician,Pathology,Allopathic & Osteopathic Physicians,33.398846325864,-104.524477835669
1740266097,THE PROMPT INSTITUTE,"4001 OFFICE CT, SUITE 305, SANTA FE, NM 87507",5054667701,Speech-Language Pathologist,Speech-Language Pathologist,"Speech, Language and Hearing Service Providers",35.634447382412,-106.016836536969
1336125764,PRESBYTERIAN HEALTHCARE SERVICES,"1202 HIGHWAY 60 BLDG E, SOCORRO, NM 87801",5758358343,Emergency Medicine Physician,Emergency Medicine,Allopathic & Osteopathic Physicians,34.042649711594,-106.909266399722
1972589307,PRESBYTERIAN HEALTHCARE SERVICES,"1202 HIGHWAY 60 BUILDING E, SOCORRO, NM 87801",5758358343,Emergency Medicine Physician,Emergency Medicine,Allopathic & Osteopathic Physicians,34.042649711594,-106.909266399722
1881670214,PRESBYTERIAN HEALTHCARE SERVICES,"8100 CONSTITUTION PL NE, STE 400, ALBUQUERQUE, NM 87110",5058238528,Emergency Medicine Physician,Emergency Medicine,Allopathic & Osteopathic Physicians,35.092755123695,-106.554953085552
1790761138,PRESBYTERIAN HEALTHCARE SERVICES,"1202 HIGHWAY 60 WEST, SOCORRO, NM 87801",5058351140,Emergency Medicine Physician,Emergency Medicine,Allopathic & Osteopathic Physicians,34.042649711594,-106.909266399722
1235115676,PRESBYTERIAN HEALTHCARE SERVICES,"301 E MIEL DE LUNA AVE, TUCUMCARI, NM 88401",5054610141,Emergency Medicine Physician,Emergency Medicine,Allopathic & Osteopathic Physicians,35.156319476749,-103.723468044787
1144206582,PRESBYTERIAN HEALTHCARE SERVICES,"1202 HIGHWAY 60 WEST, SOCORRO, NM 87801",5058351140,Emergency Medicine Physician,Emergency Medicine,Allopathic & Osteopathic Physicians,34.042649711594,-106.909266399722
1053397497,PRESBYTERIAN HEALTHCARE SERVICES,"2200 W 21ST ST, CLOVIS, NM 88101",5054697577,Medicare Defined Swing Bed Hospital Unit,Medicare Defined Swing Bed Unit,Hospital Units,34.419318572657,-103.235518756429
1962488304,PRESBYTERIAN HEALTHCARE SERVICES,"301 E MIEL DE LUNA AVE, TUCUMCARI, NM 88401",5054610141,Emergency Medicine Physician,Emergency Medicine,Allopathic & Osteopathic Physicians,35.156319476749,-103.723468044787
1245216688,PRESBYTERIAN HEALTHCARE SERVICES,"8100 CONSTITUTION PL NE, SUITE 120, ALBUQUERQUE, NM 87110",5055591122,Emergency Medicine Physician,Emergency Medicine,Allopathic & Osteopathic Physicians,35.092755123695,-106.554953085552
1154307593,PRESBYTERIAN HEALTHCARE SERVICES,"1010 SPRUCE ST, ESPANOLA, NM 87532",5057537111,Emergency Medicine Physician,Emergency Medicine,Allopathic & Osteopathic Physicians,35.997068400275,-106.085951194385
1215913470,PRESBYTERIAN HEALTHCARE SERVICES,"1100 CENTRAL SE, ALBUQUERQUE, NM 87106",5058411234,Emergency Medicine Physician,Emergency Medicine,Allopathic & Osteopathic Physicians,35.082314106333,-106.634945215281
1104802354,PRESBYTERIAN HEALTHCARE SERVICES,"5901 HARPER DR NE, ALBUQUERQUE, NM 87109",5058238556,Surgery Physician,Surgery,Allopathic & Osteopathic Physicians,35.153142396814,-106.585618987872
1558347708,PRESBYTERIAN HEALTHCARE SERVICES,"211 SUDDERTH DR, RUIDOSO, NM 88345",5052577381,Emergency Medicine Physician,Emergency Medicine,Allopathic & Osteopathic Physicians,33.323119585161,-105.630325089244
1801872981,"TURQUOISE, LTD.","734 N RIVERSIDE DR, SUITE C, ESPANOLA, NM 87532",5057532795,Durable Medical Equipment & Medical Supplies,Durable Medical Equipment & Medical Supplies,Suppliers,36.000882267095,-106.063036080011
1740266980,SANTA FE INDIAN HOSPITAL,"1700 CERRILLOS RD, SANTA FE, NM 87505",5059469272,General Acute Care Hospital,General Acute Care Hospital,Hospitals,35.6677582,-105.970355
1508842758,PRESBYTERIAN HEALTHCARE SERVICES,"615 PROSPECT AVE, SPRINGER, NM 87747",5054833310,Emergency Medicine Physician,Emergency Medicine,Allopathic & Osteopathic Physicians,36.36358355073,-104.585915980868
1114903374,PRESBYTERIAN HEALTHCARE SERVICES,"615 PROSPECT AVE, SPRINGER, NM 87747",5054833300,Emergency Medicine Physician,Emergency Medicine,Allopathic & Osteopathic Physicians,36.36358355073,-104.585915980868
1326025115,VILLAGE OF DORA,"220 AVE A, DORA, NM 88115",5754772411,Ambulance,Ambulance,Transportation Services,33.938922,-103.3378273
1851377667,INDIAN HEALTH SERVICE,"801 VASSAR DR NE, ALBUQUERQUE, NM 87106",5052484065,Federal Public Health Clinic/Center,Clinic/Center,Ambulatory Health Care Facilities,35.088461441745,-106.614368243792
1235116070,HEARING HEALTH CARE CENTER,"5203 JUAN TABO BLVD NE STE 1F, ALBUQUERQUE, NM 87111",5053237373,Audiologist,Audiologist,"Speech, Language and Hearing Service Providers",35.139945789006,-106.516679144555
1992782650,SANTA FE INDIAN HOSPITAL,"1700 CERRILLOS RD, SANTA FE, NM 87505",5059469264,Psychiatry Physician,Psychiatry & Neurology,Allopathic & Osteopathic Physicians,35.6677582,-105.970355
1902883473,"PROSTHETIC ORTHOTIC SPECIALISTS, INC","5095 ELLISON ST NE, ALBUQUERQUE, NM 87109",5052440404,Prosthetic/Orthotic Supplier,Prosthetic/Orthotic Supplier,Suppliers,35.160728486847,-106.589427017805
1104803675,COTTONTREE CENTER,"190 CENTRAL PARK SQ, SUITE 105, LOS ALAMOS, NM 87544",5056621419,Multi-Specialty Clinic/Center,Clinic/Center,Ambulatory Health Care Facilities,35.8822141,-106.3008414
1942287370,STATE OF NEW MEXICO,"992 S BROADWAY, TRUTH OR CONSEQUENCES, NM 87901",5758944200,Skilled Nursing Facility,Skilled Nursing Facility,Nursing & Custodial Care Facilities,33.122812352758,-107.264019482614
1669459947,SANTA TERESA MEDICAL CARE CENTER PC,"5055 MCNUTT RD, SANTA TERESA, NM 88008",5755895005,Internal Medicine Physician,Internal Medicine,Allopathic & Osteopathic Physicians,31.843076206445,-106.622133425925
1508843558,MORNING LIGHT PHYSICAL THERAPY INC,"1350 PASEO DEL PUEBLO SUR, STE A, TAOS, NM 87571",5057519500,Physical Therapy Clinic/Center,Clinic/Center,Ambulatory Health Care Facilities,36.374979305626,-105.593193337927
1790763522,CITY OF CLOVIS,"320 MITCHELL ST, CLOVIS, NM 88101",5757639228,Ambulance,Ambulance,Transportation Services,34.401001606577,-103.206688037048
1700864204,"MORA VALLEY COMMUNITY HEALTH SERVICES, INC","STATE HIGHWAY 518 MILEMARKER 26, MORA, NM 87732",5753876078,Home Health Agency,Home Health,Agencies,35.9753317,-105.3336349
1316925316,"INTERNAL MEDICINE ASSOCIATES OF NEW MEXICO, PC","1101 9TH ST., STE A, ALAMOGORDO, NM 88310",5754378411,Internal Medicine Physician,Internal Medicine,Allopathic & Osteopathic Physicians,32.898867449968,-105.94879446087
1710965827,S SEAN HAMASHIGE O D,"9 CALLE MEDICO, SANTA FE, NM 87505",5059832592,Optometrist,Optometrist,Eye and Vision Services Providers,35.659091525374,-105.94121067417
1932187044,MASOUD KHORSAND- SAHBAIE MD P A,"400 MILITARY HEIGHTS PL, ROSWELL, NM 88201",5756279500,Hematology & Oncology Physician,Internal Medicine,Allopathic & Osteopathic Physicians,33.423120208948,-104.527440725038
1316926041,LAGUNA RAINBOW CORPORATION,"I-40, EXIT 108, 1/2 MILE SOUTH STATE ROAD 23, CASA BLANCA, NM 87007",5055526034,Skilled Nursing Facility,Skilled Nursing Facility,Nursing & Custodial Care Facilities,35.0325134,-107.4749511
1285613836,SANTA FE INDIAN HOSPITAL,"1700 CERRILLOS RD, SANTA FE, NM 87505",5059889821,General Acute Care Hospital,General Acute Care Hospital,Hospitals,35.6677582,-105.970355
1548249675,ENDOSCOPY CENTER OF SANTA FE LP,"1630 HOSPITAL DR, SANTA FE, NM 87505",5059883373,Ambulatory Surgical Clinic/Center,Clinic/Center,Ambulatory Health Care Facilities,35.659895485149,-105.948510122932
1689654451,PEAK BEHAVIORAL HEALTH SERVICES LLC,"5065 MCNUTT RD, SANTA TERESA, NM 88008",5055893000,Psychiatric Hospital,Psychiatric Hospital,Hospitals,31.843257809032,-106.622242387456
1841270121,KAREN A MARTIN,"611 W MAHONE DR STE D, ARTESIA, NM 88210",5757461883,Oxygen Equipment & Supplies (DME),Durable Medical Equipment & Medical Supplies,Suppliers,32.845357180264,-104.403627969272
1700856952,UNITED SEATING AND MOBILITY LLC,"5741 MIDWAY PARK BLVD NE, ALBUQUERQUE, NM 87109",5053386100,Customized Equipment (DME),Durable Medical Equipment & Medical Supplies,Suppliers,35.145400353786,-106.603569239221
1346210473,EXPLORABILITIES INC,"5006 COPPER AVE NE, ALBUQUERQUE, NM 87108",5052687988,Psychologist,Psychologist,Behavioral Health & Social Service Providers,35.080077890303,-106.589222478203
1710967948,SOUND DIAGNOSTICS LLC,"3600 RODEO LN, SUITE B3, SANTA FE, NM 87507",5054382828,Sonography Radiologic Technologist,Radiologic Technologist,"Technologists, Technicians & Other Technical Service Providers",35.635372976443,-106.006207747467
1316917495,EDGEWOOD FAMILY DENTISTRY,"1917 OLD HIGHWAY 66, EDGEWOOD, NM 87015",5052810373,General Practice Dentistry,Dentist,Dental Providers,35.060011762263,-106.188351606747
1790755593,INTEGRATED HEALTH SERVICES AT JEFFERSON HOSPITAL INC,"700 FAIRGROUNDS RD, ALAMOGORDO, NM 88310",5754370202,Customized Equipment (DME),Durable Medical Equipment & Medical Supplies,Suppliers,32.926477737238,-105.954843737755
1285604108,UNM PSYCHIATRIC CENTER,"2600 MARBLE NE, ALBUQUERQUE, NM 87131",5052722800,Psychiatric Hospital,Psychiatric Hospital,Hospitals,35.091009056768,-106.616652582923
1962472811,G & G MEDICAL INC,"925 MALTA AVE, FARMINGTON, NM 87401",5053263705,Parenteral & Enteral Nutrition Supplies (DME),Durable Medical Equipment & Medical Supplies,Suppliers,36.723291635974,-108.180181989826
1679543540,THE CHIROPRACTIC CARE CENTER PC,"3100 CARLISLE BLVD NE, STE B, ALBUQUERQUE, NM 87110",5058884533,Chiropractor,Chiropractor,Chiropractic Providers,35.117424742573,-106.604041969471
1417927021,"HEART HOSPITAL OF NEW MEXICO, LLC","504 ELM ST NE, ALBUQUERQUE, NM 87102",5057242000,General Acute Care Hospital,General Acute Care Hospital,Hospitals,35.087397374053,-106.63766571971
1396716643,SAN MIGUEL HOSPITAL CORPORATION,"104 LEGION DR, LAS VEGAS, NM 87701",5054263500,General Acute Care Hospital,General Acute Care Hospital,Hospitals,35.6233911,-105.2108301
1447221742,ROSWELL HOSPITAL CORPORATION,"405 W COUNTRY CLUB RD, ROSWELL, NM 88201",5756228170,General Acute Care Hospital,General Acute Care Hospital,Hospitals,33.423349512279,-104.5275257115
1568433431,ROSWELL HOSPITAL CORPORATION,"405 W COUNTRY CLUB RD, ROSWELL, NM 88201",5056228170,Medicare Defined Swing Bed Hospital Unit,Medicare Defined Swing Bed Unit,Hospital Units,33.423349512279,-104.5275257115
1477524346,ROSWELL HOSPITAL CORPORATION,"405 W COUNTRY CLUB RD, ROSWELL, NM 88201",5056228170,Psychiatric Hospital Unit,Psychiatric Unit,Hospital Units,33.423349512279,-104.5275257115
1487625257,SAN MIGUEL HOSPITAL CORPORATION,"104 LEGION DR, LAS VEGAS, NM 87701",5054263500,Medicare Defined Swing Bed Hospital Unit,Medicare Defined Swing Bed Unit,Hospital Units,35.6233911,-105.2108301
1881665594,DEMING HOSPITAL CORPORATION,"900 W ASH ST, DEMING, NM 88030",5055465800,General Acute Care Hospital,General Acute Care Hospital,Hospitals,32.261202549133,-107.769396698022
1659342251,GRD HEALTH CLINIC INC,"415 N PASEO DE ONATE, ESPANOLA, NM 87532",5057533369,Chiropractor,Chiropractor,Chiropractic Providers,35.99648306363,-106.084186450534
1073584579,DEMING HOSPITAL CORPORATION,"900 W ASH ST, DEMING, NM 88030",5755465800,Skilled Nursing Facility,Skilled Nursing Facility,Nursing & Custodial Care Facilities,32.261202549133,-107.769396698022
1881666998,"RADIOLOGY ASSOCIATES OF ALBUQUERQUE, PA","4411 THE 25 WAY NE, SUITE 150, ALBUQUERQUE, NM 87109",5053326900,Diagnostic Radiology Physician,Radiology,Allopathic & Osteopathic Physicians,35.145781281197,-106.593126994663
1497727747,"SCOTT MILTENBERGER DMD, PC","3901 GEORGIA ST NE STE C4, ALBUQUERQUE, NM 87110",5058849793,Dentist,Dentist,Dental Providers,35.128839132268,-106.570583699239
1285606384,27TH SPECIAL OPS MEDGRP-CANNON,"208 W CASABLANCA AVE, 27 MDSS SGSR, CANNON AFB, NM 88103",5057844023,Military/U.S. Coast Guard Pharmacy,Military/U.S. Coast Guard Pharmacy,Suppliers,34.399649055725,-103.327767276927
1851363972,ADVANCED IMAGING LLC,"700 LOMAS BLVD NE, 4 WOODWARD CENTER, ALBUQUERQUE, NM 87102",5052434401,Body Imaging Physician,Radiology,Allopathic & Osteopathic Physicians,35.090130188499,-106.636973974157
1750353876,PRESBYTERIAN MAGNETIC RESONANCE,"1011 COAL AVE SE, ALBUQUERQUE, NM 87106",5052435050,Body Imaging Physician,Radiology,Allopathic & Osteopathic Physicians,35.078612840871,-106.636329691402
1902878754,"NAVAJO TRANSPORT SERVICE, INC.","904 SULLIVAN AVE, FARMINGTON, NM 87401",5053270851,Non-emergency Medical Transport (VAN),Non-emergency Medical Transport (VAN),Transportation Services,36.738800441107,-108.184278501293
1508838004,"LA CLINICA DE FAMILIA, INCORPORATED","510 E LISA DR, CHAPARRAL, NM 88081",5758240820,Federally Qualified Health Center (FQHC),Clinic/Center,Ambulatory Health Care Facilities,32.038216113174,-106.393611662999
1730152281,"LA CLINICA DE FAMILIA, INCORPORATED","2625 MCNUTT RD, SUNLAND PARK, NM 88063",5755890887,Federally Qualified Health Center (FQHC),Clinic/Center,Ambulatory Health Care Facilities,31.801751264255,-106.582414952402
1346213808,"LA CLINICA DE FAMILIA, INCORPORATED","385 CALLE DE ALEGRA BLDG C, LAS CRUCES, NM 88005",5755217181,Federally Qualified Health Center (FQHC),Clinic/Center,Ambulatory Health Care Facilities,32.29099,-106.7719822
1285607754,"LA CLINICA DE FAMILIA, INCORPORATED","8600 BATAAN MEMORIAL E, LAS CRUCES, NM 88011",5753739202,Federally Qualified Health Center (FQHC),Clinic/Center,Ambulatory Health Care Facilities,32.4061144,-106.651901
1386617884,"DEMING HOME CARE SERVICES, LLC","3948 E LOHMAN AVE, STE 3, LAS CRUCES, NM 88011",5756523867,Home Health Agency,Home Health,Agencies,32.319786453397,-106.732957595742
1558334052,DEMING HOME CARE SERVICES LLC,"113 N. PEARL STREET, DEMING, NM 88030",5755444663,Community Based Hospice Care Agency,"Hospice Care, Community Based",Agencies,32.26965399405,-107.752437238154
1356314504,GUTIERREZ MEDICAL GROUP PA,"1010 E ROOSEVELT AVE, GRANTS, NM 87020",5052872948,Specialist,Specialist,Other Service Providers,35.161241452038,-107.82758980016
1699748921,"LA CLINICA DE FAMILIA, INCORPORATED","855 ANTHONY DR, ANTHONY, NM 88021",5758825706,General Practice Dentistry,Dentist,Dental Providers,32.008074974218,-106.606623775648
1396718631,"LA CLINICA DE FAMILIA, INCORPORATED","18420 S HIGHWAY 28, LA MESA, NM 88044",5752333830,Federally Qualified Health Center (FQHC),Clinic/Center,Ambulatory Health Care Facilities,32.148024764653,-106.724807637786
1083687115,"LA CLINICA DE FAMILIA, INCORPORATED","100 AIRPORT RD, SANTA TERESA, NM 88008",5758749338,Federally Qualified Health Center (FQHC),Clinic/Center,Ambulatory Health Care Facilities,31.8632907,-106.651973
1366415325,"RICHARD VERDERAME, DDS, MS","4111 BARBARA LOOP SE, SUITE E-2, RIO RANCHO, NM 87124",5058913000,Periodontics,Dentist,Dental Providers,35.23425128507,-106.653550404824
1952374910,49TH MEDGRP-HOLLOMAN,"280 1ST ST, SGSR, HOLLOMAN AFB, NM 88330",5055725744,Military and U.S. Coast Guard Ambulatory Procedure Clinic/Center,Clinic/Center,Ambulatory Health Care Facilities,32.838201,-106.073203
1881667806,"RIO GRANDE FS, LLC","5011 MONTGOMERY BLVD NE, SUITE B-2, ALBUQUERQUE, NM 87109",5058723668,Durable Medical Equipment & Medical Supplies,Durable Medical Equipment & Medical Supplies,Suppliers,35.131002454628,-106.587750139745
1225001928,"ENCOMPASS HEALTH REHABILITATION HOSPITAL OF ALBUQUERQUE, LLC","7000 JEFFERSON ST NE, ALBUQUERQUE, NM 87109",5053449478,Rehabilitation Hospital,Rehabilitation Hospital,Hospitals,35.159414982358,-106.593183111086
1205809944,"LA CLINICA DE FAMILIA, INCORPORATED","385 CALLE DE ALEGRA STE B, LAS CRUCES, NM 88005",5756742880,Federally Qualified Health Center (FQHC),Clinic/Center,Ambulatory Health Care Facilities,32.29099,-106.7719822
1306810692,LOS ALAMOS NM ENDOSCOPY ASC LLC,"1911 CENTRAL AVE, SUITE 100, LOS ALAMOS, NM 87544",5056619976,Ambulatory Surgical Clinic/Center,Clinic/Center,Ambulatory Health Care Facilities,35.881433920953,-106.301470559371
1861466732,"BASIN COORDINATED HEALTHCARE,INC","210 N ORCHARD AVE, FARMINGTON, NM 87401",5053248269,Specialist,Specialist,Other Service Providers,36.730988091005,-108.205211182595
1225002322,"DHHS,PHS,NAIHS, GALLUP INDIAN MEDICAL CENTER","516 E. NIZHONI BLVD., GALLUP, NM 87301",5057221000,Custodial Care Facility,Custodial Care Facility,Nursing & Custodial Care Facilities,35.508411116064,-108.730354393772
1861467433,SAN JUAN REGIONAL MEDICAL CENTER INC,"120 LLANO ST, AZTEC, NM 87410",5053343404,Cardiovascular Disease Physician,Internal Medicine,Allopathic & Osteopathic Physicians,36.819489769129,-107.997072689113
1518932151,SAN JUAN REGIONAL MEDICAL CENTER INC,"801 W MAPLE ST, FARMINGTON, NM 87401",5056092258,Emergency Medicine Physician,Emergency Medicine,Allopathic & Osteopathic Physicians,36.724258033614,-108.215630345724
1134194483,"CHOICES BEHAVIORAL HEALTH SERVICES, INC.","313 W APACHE ST, FARMINGTON, NM 87401",5053255321,Adolescent and Children Mental Health Clinic/Center,Clinic/Center,Ambulatory Health Care Facilities,36.733906434583,-108.208239878492
1750356820,ORTHOPEDIC ASSOCIATES PA,"2300 E 30TH ST STE 101, FARMINGTON, NM 87401",5053271400,Foot & Ankle Surgery Podiatrist,Podiatrist,Podiatric Medicine & Surgery Service Providers,36.756112310626,-108.171629645674
1104892884,RAINBOW DENTAL,"8611 GOLF COURSE RD NW, ALBUQUERQUE, NM 87114",5058906101,Dentist,Dentist,Dental Providers,35.181452886768,-106.687613393987
1700852373,ALAMOGORDO IMAGING CENTER LLC,"2539 MEDICAL DR, STE 101, ALAMOGORDO, NM 88310",5054341353,Diagnostic Radiology Physician,Radiology,Allopathic & Osteopathic Physicians,32.922960958729,-105.932866199831
1235105800,X-RAY ASSOCIATES OF NEW MEXICO PC,"8020 CONSTITUTION PLACE NE, SUITE 101, ALBUQUERQUE, NM 87110",5059981316,Surgery Physician,Surgery,Allopathic & Osteopathic Physicians,35.093614436348,-106.55577438403
1639145808,ALBUQUERQUE CENTER FOR RHEUMATOLOGY PC,"1617 UNIVERSITY BLVD NE, ALBUQUERQUE, NM 87102",5053414148,Physical Medicine & Rehabilitation Physician,Physical Medicine & Rehabilitation,Allopathic & Osteopathic Physicians,35.102013753327,-106.627870786721
1841266038,UNIVERSITY OF NEW MEXICO HEALTH SCIENCES CENTER,"CARDIOTHORACIC SURGERY 2 ACC MSC 10 5610, 1 UNIVERSITY OF NEW MEXICO, ALBUQUERQUE, NM 87131",5052726901,General Acute Care Hospital,General Acute Care Hospital,Hospitals,35.0845099,-106.6186915
1184691479,"DOORSTEP MEDICAL CONSULTANTS, LLC","7236 DANCING EAGLE AVE NE, ALBUQUERQUE, NM 87113",5053237441,Adult Health Nurse Practitioner,Nurse Practitioner,Physician Assistants & Advanced Practice Nursing Providers,35.184825039841,-106.565432935223
1366410771,HEALTH CARE SOLUTIONS PA,"208 PORR DR, RUIDOSO, NM 88345",5756301214,Family Medicine Physician,Family Medicine,Allopathic & Osteopathic Physicians,33.345060584084,-105.67603118058
1336117621,AMBERCARE HOME HEALTH CARE CORPORATION,"2129 OSUNA RD NE, ALBUQUERQUE, NM 87113",5052440046,In Home Supportive Care Agency,In Home Supportive Care,Agencies,35.153246485542,-106.606189028454
1952370983,"AMERICAN HOMEPATIENT, INC.","819 E ROOSEVELT AVE, GRANTS, NM 87020",5052877244,Parenteral & Enteral Nutrition Supplies (DME),Durable Medical Equipment & Medical Supplies,Suppliers,35.161103630285,-107.831038697277
1285602466,REBOUND PHYSICAL THERAPY INC,"4717 QUEMAZON, LOS ALAMOS, NM 87544",5056622225,Physical Therapy Clinic/Center,Clinic/Center,Ambulatory Health Care Facilities,35.891054021213,-106.326884016229
1700855616,"AMERICAN HOMEPATIENT, INC.","3107 N MAIN ST, SUITE B, ROSWELL, NM 88201",5056225612,Parenteral & Enteral Nutrition Supplies (DME),Durable Medical Equipment & Medical Supplies,Suppliers,33.4349517,-104.5226556
1164491072,"SOUTHWEST MEDICAL ASSOCIATES, LLC","6701 JEFFERSON ST NE, ALBUQUERQUE, NM 87109",5057276200,Family Medicine Physician,Family Medicine,Allopathic & Osteopathic Physicians,35.156240527137,-106.593649526888
1316916380,"AMERICAN HOMEPATIENT, INC.","2659 PAN AMERICAN FRWY NE, SUITE F, ALBUQUERQUE, NM 87107",5052435664,Parenteral & Enteral Nutrition Supplies (DME),Durable Medical Equipment & Medical Supplies,Suppliers,35.110866221052,-106.627678925901
1114996188,ISIS MEDICINE PC,"401 BOTULPH LN, SANTA FE, NM 87505",5059838387,Medical Physician Assistant,Physician Assistant,Physician Assistants & Advanced Practice Nursing Providers,35.656242525647,-105.948357600084
1447228598,"AMBERCARE HOSPICE, INC.","2129 OSUNA RD NE, ALBUQUERQUE, NM 87113",5052440046,Community Based Hospice Care Agency,"Hospice Care, Community Based",Agencies,35.153246485542,-106.606189028454
1639148620,AMBERCARE MEDICAL SUPPLY COMPANY,"420 N MAIN ST, BELEN, NM 87002",5058610060,Durable Medical Equipment & Medical Supplies,Durable Medical Equipment & Medical Supplies,Suppliers,34.664168705569,-106.775325472272
1912976648,PSYCHOLOGY & COUNSELING SERVICES INC,"119 TELLES ST SW, LOS LUNAS, NM 87031",5058657100,Clinical Psychologist,Psychologist,Behavioral Health & Social Service Providers,34.80242723834,-106.737378838944
1902875594,"DHHS, PHS, NAIHS, GALLUP INDIAN MEDICAL CENTER","007 CHOOSGAI DRIVE, TOHATCHI, NM 87325",5057221000,Federal Public Health Clinic/Center,Clinic/Center,Ambulatory Health Care Facilities,35.858343,-108.7623372
1184693665,SIERRA HEALTH CARE INC.,"1400 N SILVER ST, TRUTH OR CONSEQUENCES, NM 87901",5758941735,Community Based Hospice Care Agency,"Hospice Care, Community Based",Agencies,33.14437897772,-107.237955152167
1376502591,SOUTHWEST RESPIRATORY LLC,"5109 MENAUL BLVD NE, ALBUQUERQUE, NM 87110",5058886200,Durable Medical Equipment & Medical Supplies,Durable Medical Equipment & Medical Supplies,Suppliers,35.109255020715,-106.587322801546
1992764112,SAN JUAN REGIONAL MEDICAL CENTER INC,"555 S SCHWARTZ AVE, FARMINGTON, NM 87401",5056096680,Psychiatry Physician,Psychiatry & Neurology,Allopathic & Osteopathic Physicians,36.725056397265,-108.215391235193
1235108549,PULMONARY SERVICES,"2900 HILLRISE DR, LAS CRUCES, NM 88011",5055561300,Specialist,Specialist,Other Service Providers,32.3039853,-106.7376504
1891754750,MJRX LLC,"7209 JEFFERSON ST NE, ALBUQUERQUE, NM 87109",5058814601,Pharmacy,Pharmacy,Suppliers,35.161951154719,-106.593321830859
1831158765,OXYGEN THERAPY ASSOCIATES INC,"300 N TELSHOR BLVD STE 300, LAS CRUCES, NM 88011",5053225294,Customized Equipment (DME),Durable Medical Equipment & Medical Supplies,Suppliers,32.320620547775,-106.749955715347
1396705687,"RIO WEST MEDICAL, LLC","6200 COORS BLVD NW, ALBUQUERQUE, NM 87120",5058960533,Customized Equipment (DME),Durable Medical Equipment & Medical Supplies,Suppliers,35.152491934305,-106.683720191486
1790745974,LA CLINICA DEL PUEBLO DE RIO ARRIBA,"HIGHWAY 84 COUNTY ROAD 324 #14, TIERRA AMARILLA, NM 87575",5055887252,Land Ambulance,Ambulance,Transportation Services,36.7067905,-106.5580877
1386604304,NORTHERN NEW MEXICO UROLOGY LLC,"3917 WEST RD, SUITE 137, LOS ALAMOS, NM 87544",5056618500,Specialist,Specialist,Other Service Providers,35.881854566569,-106.321780568784
1386604320,GENZYME CORPORATION,"2000 VIVIGEN WAY, SANTA FE, NM 87505",5054381111,Clinical Medical Laboratory,Clinical Medical Laboratory,Laboratories,35.638595937618,-105.960921583184
1811957434,"RX INNOVATIONS, INC.","1128 HISTORIC ROUTE 66, SANTA ROSA, NM 88435",5054725666,Pharmacy,Pharmacy,Suppliers,34.9445675,-104.6752381
1124089206,SELECT PHYSICAL THERAPY OF ALBUQUERQUE LTD,"2113 GOLF COURSE RD SE, NUMBER 106, RIO RANCHO, NM 87124",5058989700,Rehabilitation Clinic/Center,Clinic/Center,Ambulatory Health Care Facilities,35.221653768114,-106.677155782248
1689635625,INIGUEZ PHYSICAL THERAPY,"1310 N POPE ST, SILVER CITY, NM 88061",5053880430,Physical Therapist,Physical Therapist,"Respiratory, Developmental, Rehabilitative and Restorative Service Providers",32.778824669961,-108.275705438986
1932160975,FIFTY N FIT INC,"11719 MENAUL BLVD NE, ALBUQUERQUE, NM 87112",5053458050,Physical Therapist,Physical Therapist,"Respiratory, Developmental, Rehabilitative and Restorative Service Providers",35.108770085206,-106.51004835276
1184685943,ROSWELL HOME MEDICAL INC,"1398 WEIMER RD, SUITE 202, TAOS, NM 87571",5757512810,Customized Equipment (DME),Durable Medical Equipment & Medical Supplies,Suppliers,36.367438491542,-105.577560717874
1598726341,ROSWELL HOME MEDICAL INC,"2948 HIGHWAY 180 E, SILVER CITY, NM 88061",5755341966,Customized Equipment (DME),Durable Medical Equipment & Medical Supplies,Suppliers,32.7862968,-108.2447006
1942261797,ROSWELL HOME MEDICAL INC,"3620 N PRINCE ST, SUITE B, CLOVIS, NM 88101",5757625352,Customized Equipment (DME),Durable Medical Equipment & Medical Supplies,Suppliers,34.435262887772,-103.196519742198
1295796043,ROSWELL HOME MEDICAL INC,"814 BOARDMAN DR, GALLUP, NM 87301",5058635220,Customized Equipment (DME),Durable Medical Equipment & Medical Supplies,Suppliers,35.512235614779,-108.706966961287
1568423325,ROSWELL HOME MEDICAL INC,"1549 6TH ST STE D, SANTA FE, NM 87505",5059899504,Customized Equipment (DME),Durable Medical Equipment & Medical Supplies,Suppliers,35.663209799446,-105.972645123431
1255392015,ROSWELL HOME MEDICAL INC,"107 S UNION AVE, ROSWELL, NM 88203",5756251400,Customized Equipment (DME),Durable Medical Equipment & Medical Supplies,Suppliers,33.39297961196,-104.536020428404
1104887769,ROSWELL HOME MEDICAL INC,"4201 YALE BLVD NE, SUITE E, ALBUQUERQUE, NM 87107",5053438761,Customized Equipment (DME),Durable Medical Equipment & Medical Supplies,Suppliers,35.127420360006,-106.621845379189
1730141508,HIGH PLAINS REGIONAL EDUCATION COOP,"101 N 2ND ST, RATON, NM 87740",5054457090,Audiologist,Audiologist,"Speech, Language and Hearing Service Providers",36.902309055494,-104.439413364136
1912960576,NMVAHCS,"813 MADEIRA DR SE, 1501 SAN PEDRO DR. SE, ALBUQUERQUE, NM 87108",5052651711,Physical Therapist,Physical Therapist,"Respiratory, Developmental, Rehabilitative and Restorative Service Providers",35.068194325821,-106.584247178858
1619930161,"ADDUS HEALTHCARE, INC.","19 INDUSTRIAL PARK ROAD, STE, C, SANTA FE, NM 87506",5057532284,Home Health Agency,Home Health,Agencies,35.878002660826,-106.057720755319
1740243229,"ALLIANCE HOME HEALTH CARE, LLC","3870 FOOTHILLS RD, LAS CRUCES, NM 88011",5755568409,Community Based Hospice Care Agency,"Hospice Care, Community Based",Agencies,32.321695596682,-106.734248155758
1801859319,SPROCKET MEDICAL MANAGEMENT LLC,"5419 N LOVINGTON HWY, HOBBS, NM 88240",5054915000,Certified Registered Nurse Anesthetist,"Nurse Anesthetist, Certified Registered",Physician Assistants & Advanced Practice Nursing Providers,32.760623189424,-103.180845703793
1639132673,"MAXIM HEALTHCARE SERVICES, INC.","3050 N ROADRUNNER PKWY, LAS CRUCES, NM 88011",5055228811,Home Health Agency,Home Health,Agencies,32.357591718233,-106.756827153534
1336102110,"TRESCO, INC.","1800 COPPER LOOP, LAS CRUCES, NM 88005",5755282200,Developmentally Disabled Services Day Training Agency,"Day Training, Developmentally Disabled Services",Agencies,32.306459933715,-106.804581506287
1104880707,ALBUQUERQUE VETERANS ADMINISTRATION MEDICAL CENTER,"6001 SONORA AVE NW, ALBUQUERQUE, NM 87120",5053793389,General Acute Care Hospital,General Acute Care Hospital,Hospitals,35.165181279898,-106.707923255556
1861456477,DR LISA W ARNHART DDS PC,"8521 GOLF COURSE RD NW, SUITE 116, ALBUQUERQUE, NM 87114",5058976453,General Practice Dentistry,Dentist,Dental Providers,35.180640702112,-106.68779737164
1932163326,"FRONTIER MEDICAL EQUIPMENT, INC.","613 SUDDERTH DR, STE K, RUIDOSO, NM 88345",5052572536,Oxygen Equipment & Supplies (DME),Durable Medical Equipment & Medical Supplies,Suppliers,33.323526890713,-105.647657550919
1821052267,"CROSS OXYGEN DELIVERY, LLC","6111 SUNRAY RD NW, ALBUQUERQUE, NM 87120",5058392904,Oxygen Equipment & Supplies (DME),Durable Medical Equipment & Medical Supplies,Suppliers,35.109070190492,-106.708916739536
1689638942,SIERRA VISTA HOSPITAL,"800 E 9TH AVE, TRUTH OR CONSEQUENCES, NM 87901",5758942111,Rural Health Clinic/Center,Clinic/Center,Ambulatory Health Care Facilities,33.139104978803,-107.243339426999
1760446009,SIERRA VISTA HOSPITAL,"800 E 9TH AVE, TRUTH OR CONSEQUENCES, NM 87901",5758942111,Critical Access Hospital,General Acute Care Hospital,Hospitals,33.139104978803,-107.243339426999
1497719769,MELINDA'S MEDICAL SUPPLY,"910 E 32ND ST, SILVER CITY, NM 88061",5755344013,Oxygen Equipment & Supplies (DME),Durable Medical Equipment & Medical Supplies,Suppliers,32.79561108153,-108.266123500785
1720042583,HOME MEDICAL EQUIPMENT SPECIALISTS LLC,"3901 MASTHEAD ST NE, ALBUQUERQUE, NM 87109",5058886500,Oxygen Equipment & Supplies (DME),Durable Medical Equipment & Medical Supplies,Suppliers,35.166480635902,-106.59971818156
1063477727,TRC - FOUR CORNERS DIALYSIS CLINICS LLC,"801 W BROADWAY, FARMINGTON, NM 87401",5053252827,End-Stage Renal Disease (ESRD) Treatment Clinic/Center,Clinic/Center,Ambulatory Health Care Facilities,36.727921368971,-108.218312748927
1689639395,"ROADRUNNER HOME MEDICAL EQUIPMENT,LLC","2429 QUINCY ST NE STE D, ALBUQUERQUE, NM 87110",5058721352,Durable Medical Equipment & Medical Supplies,Durable Medical Equipment & Medical Supplies,Suppliers,35.106006330704,-106.58981088622
1639134869,"PNEUMEXICO RESPIRATORY, LLC","102 MOUNTAIN PARK PL NW, SUITE A, ALBUQUERQUE, NM 87114",5058988808,Durable Medical Equipment & Medical Supplies,Durable Medical Equipment & Medical Supplies,Suppliers,35.19471739915,-106.607782580204
1487619326,TRC - FOUR CORNERS DIALYSIS CLINICS LLC,"US HIGHWAY 491 NORTH, SHIPROCK, NM 87420",5053684125,End-Stage Renal Disease (ESRD) Treatment Clinic/Center,Clinic/Center,Ambulatory Health Care Facilities,36.793088,-108.6893439
1245295112,CLOVIS VA OUTPATIENT CARE CLINIC,"921 E LLANO ESTACADO BLVD, CLOVIS, NM 88101",5057634335,Clinic/Center,Clinic/Center,Ambulatory Health Care Facilities,34.433837976794,-103.194939242939
1215992391,TURQUOISE TRAIL PHYSICAL THERAPY & REHABILITATION,"6320 RIVERSIDE PLAZA LANE, STE 150B, ALBUQUERQUE, NM 87120",5058842032,Physical Therapy Clinic/Center,Clinic/Center,Ambulatory Health Care Facilities,35.156430061456,-106.679944278465
1568427698,NEW MEXICO SURGICENTER LIMITED PARTNERSHIP,"1720 WYOMING BLVD NE, ALBUQUERQUE, NM 87112",5052929200,Ambulatory Surgical Clinic/Center,Clinic/Center,Ambulatory Health Care Facilities,35.100836598408,-106.550712124729
1194781021,"PECOS VALLEY OF NEW MEXICO, LLC","2430 W PIERCE ST, CARLSBAD, NM 88220",5056283244,General Practice Physician,General Practice,Allopathic & Osteopathic Physicians,32.441935990838,-104.258674886435
1972569820,"PECOS VALLEY OF NEW MEXICO, LLC","2420 W PIERCE ST, SUITE 200 B, CARLSBAD, NM 88220",5056281490,General Practice Physician,General Practice,Allopathic & Osteopathic Physicians,32.441871653652,-104.258602630838
1700842606,GARY D BARHAM MD PA,"2911 HILLRISE DR, LAS CRUCES, NM 88011",5055219729,Orthopaedic Surgery Physician,Orthopaedic Surgery,Allopathic & Osteopathic Physicians,32.304323347387,-106.737816765803
1326004755,"PECOS VALLEY OF NEW MEXICO, LLC","2420 W PIERCE ST, SUITE 200 B, CARLSBAD, NM 88220",5056281589,General Practice Physician,General Practice,Allopathic & Osteopathic Physicians,32.441871653652,-104.258602630838
1265498471,"RUIDOSO PHYSICAL THERAPY CLINIC, INC","439 MECHEM DR, RUIDOSO, NM 88345",5752571800,Physical Therapist,Physical Therapist,"Respiratory, Developmental, Rehabilitative and Restorative Service Providers",33.336756344123,-105.676458967461
1598722951,SCOTT D ALLEN MD & ASSOCIATES PC,"2300 E 30TH ST, STE 105, FARMINGTON, NM 87401",5053270406,Ophthalmology Physician,Ophthalmology,Allopathic & Osteopathic Physicians,36.756112310626,-108.171629645674
1598722894,ANTHONY ABBATE,"1622 GALISTEO ST, SANTA FE, NM 87505",5054388884,Acupuncturist,Acupuncturist,Other Service Providers,35.663820867603,-105.948466850042
1710944947,"TORRANCE COUNTY COUNSELING, LLC","1701 US RT. 66, SUITE D, MORIARTY, NM 87035",5058329135,Counselor,Counselor,Behavioral Health & Social Service Providers,35.0111579,-106.0638772
1437116662,SIERRA VISTA HOSPITAL AMBULANCE,"800 E 9TH AVE, TRUTH OR CONSEQUENCES, NM 87901",5058942111,Ambulance,Ambulance,Transportation Services,33.139104978803,-107.243339426999
1396703336,ALBUQUERQUE VAMC,"1501 SAN PEDRO DR SE, ALBUQUERQUE, NM 87108",5052651711,Department of Veterans Affairs (VA) Pharmacy,Department of Veterans Affairs (VA) Pharmacy,Suppliers,35.054028672497,-106.57775022778
1023076197,PHYSICAL THERAPY PLUS INC,"1350 CENTRAL AVE, STE 105, LOS ALAMOS, NM 87544",5056623384,Physical Therapist,Physical Therapist,"Respiratory, Developmental, Rehabilitative and Restorative Service Providers",35.881410392013,-106.298192629579
1912965971,BETTER BREATHING CONCEPTS LLC,"4436 CORRALES RD, CORRALES, NM 87048",5059221858,Durable Medical Equipment & Medical Supplies,Durable Medical Equipment & Medical Supplies,Suppliers,35.224468502373,-106.61463835774
1396703096,INDEPENDENT MRI CENTER LLC,"1750 E 30TH ST, FARMINGTON, NM 87401",5053270123,Magnetic Resonance Imaging (MRI) Clinic/Center,Clinic/Center,Ambulatory Health Care Facilities,36.756532413662,-108.184051223519
1861450579,OTERO COUNTY HOSPITAL ASSOCIATION,"2669 SCENIC DR, ALAMOGORDO, NM 88310",5754437403,Psychiatric Hospital Unit,Psychiatric Unit,Hospital Units,32.925646448247,-105.932754991211
1013975275,SUNVIEW HOLDINGS INC,"2525 S TELSHOR BLVD, LAS CRUCES, NM 88011",5055226236,Diagnostic Radiology Physician,Radiology,Allopathic & Osteopathic Physicians,32.29096961359,-106.734797820737
1427016781,BEVERLY A THURMOND,"2990 N MAIN ST, SUITE 2B, LAS CRUCES, NM 88001",5055260888,General Practice Dentistry,Dentist,Dental Providers,32.3402292,-106.774791
1710935978,"STERLING EMERGENCY SERVICES OF NEW MEXICO, INC","5400 GIBSON BLVD SE, ALBUQUERQUE, NM 87108",5052627000,Emergency Medicine Physician,Emergency Medicine,Allopathic & Osteopathic Physicians,35.058267059767,-106.582040668944
1487603726,"THI OF NEW MEXICO THERAPY, LLC","8814 HORIZON BLVD NE, ALBUQUERQUE, NM 87113",5058282400,Physical Therapist,Physical Therapist,"Respiratory, Developmental, Rehabilitative and Restorative Service Providers",35.187151480915,-106.600536928329
1730137217,"ALBUQUERQUE WEST SMILES YOUTH DENTISTRY, PC","111 COORS BLVD NW, E-6, ALBUQUERQUE, NM 87121",5053523808,General Practice Dentistry,Dentist,Dental Providers,35.080577904281,-106.710759051307
1578511929,VA MEDICAL CENTER,"1501 SAN PEDRO DR SE, ALBUQUERQUE, NM 87108",5052651711,General Acute Care Hospital,General Acute Care Hospital,Hospitals,35.054028672497,-106.57775022778
1316995814,"BIO-MEDICAL APPLICATIONS OF NEW MEXICO, INC.","902 W PIERCE ST, CARLSBAD, NM 88220",5752341327,End-Stage Renal Disease (ESRD) Treatment Clinic/Center,Clinic/Center,Ambulatory Health Care Facilities,32.435799949966,-104.236645486876
1144279381,"ALBUQUERQUE EAST SMILES YOUTH DENTISTRY, PC","201 SAN PEDRO DR SE, SUITE B-2, ALBUQUERQUE, NM 87108",5052325437,General Practice Dentistry,Dentist,Dental Providers,35.074701587508,-106.577529645979
1447209655,SELECT PHYSICAL THERAPY HOLDINGS INC,"2700 FARMINGTON AVE, STE C, FARMINGTON, NM 87401",5053260761,Rehabilitation Clinic/Center,Clinic/Center,Ambulatory Health Care Facilities,36.753997277433,-108.179827757587
1275582470,DAVID A STALKER MD PA,"233 FAIRWAY TER N STE B, CLOVIS, NM 88101",5757627779,General Practice Physician,General Practice,Allopathic & Osteopathic Physicians,34.44285875295,-103.194214277423
1013966118,ALBUQUERQUE VAMC,"1501 SAN PEDRO DR SE, ALBUQUERQUE, NM 87108",7023413152,General Acute Care Hospital,General Acute Care Hospital,Hospitals,35.054028672497,-106.57775022778
1922057827,PINON HILLS OPTICAL INC,"2300 E 30TH ST, STE 105, FARMINGTON, NM 87401",5053254298,Eyewear Supplier,Eyewear Supplier,Suppliers,36.756112310626,-108.171629645674
1861441529,ENCHANTED DESERT EMERGENCY PHYSICIANS LLC,"900 W ASH ST, DEMING, NM 88030",5055465879,Family Medicine Physician,Family Medicine,Allopathic & Osteopathic Physicians,32.261202549133,-107.769396698022
1922057892,SOUTHWEST SPINE & ORTHOPEDIC CLINIC PC,"1750 E 30TH ST, FARMINGTON, NM 87401",5053270333,Sports Medicine (Orthopaedic Surgery) Physician,Orthopaedic Surgery,Allopathic & Osteopathic Physicians,36.756532413662,-108.184051223519
1013966613,EMERGENCY PHYSICIANS AT SIERRA VISTA,"800 E 9TH AVE, TRUTH OR CONSEQUENCES, NM 87901",5058942111,Emergency Medicine Physician,Emergency Medicine,Allopathic & Osteopathic Physicians,33.139104978803,-107.243339426999
1750330510,LOS ALAMOS PHYSICIAN PRACTICES LLC,"3917 WEST RD, LOS ALAMOS, NM 87544",5056624201,Internal Medicine Physician,Internal Medicine,Allopathic & Osteopathic Physicians,35.881854566569,-106.321780568784
1356390769,"LAS CRUCES PHYSICIAN PRACTICES, LLC","2530 S TELSHOR BLVD, SUITE 107, LAS CRUCES, NM 88011",5055215277,Psychologist,Psychologist,Behavioral Health & Social Service Providers,32.290356657318,-106.73464213878
1609826916,VISTA EMERGENCY PHYSICIANS LLC,"1015 E ROOSEVELT AVE, EMERGENCY DEPARTMENT, GRANTS, NM 87020",9732511132,Emergency Medicine Physician,Emergency Medicine,Allopathic & Osteopathic Physicians,35.1611281142,-107.827448132779
1922058114,"LOS ALAMOS WOMENS HEALTH SERVICES, PC","3917 WEST RD, SUITE 250, LOS ALAMOS, NM 87544",5056624412,Obstetrics & Gynecology Physician,Obstetrics & Gynecology,Allopathic & Osteopathic Physicians,35.881854566569,-106.321780568784
1912957648,"THI NURSE PRACTITIONERS, LLC","8814 HORIZON BLVD NE, ALBUQUERQUE, NM 87113",5058584420,Nurse Practitioner,Nurse Practitioner,Physician Assistants & Advanced Practice Nursing Providers,35.187151480915,-106.600536928329
1053361048,READY PHARMACY,"111 W LISA DR, CHAPARRAL, NM 88081",5758248211,Pharmacist,Pharmacist,Pharmacy Service Providers,32.038248004229,-106.428464110401
1770533440,ELPASEO PHARMACY LLC,"1605 EL PASEO RD, SUITE A, LAS CRUCES, NM 88001",5755411500,Community/Retail Pharmacy,Pharmacy,Suppliers,32.294747668475,-106.768321875095
1205887452,"ADVANTAGE HOME CARE, INC.","8725 ALAMEDA PARK DR NE, ALBUQUERQUE, NM 87113",5058280232,Internal Medicine Physician,Internal Medicine,Allopathic & Osteopathic Physicians,35.183714260707,-106.606537011004
1114977675,EASTERN NEW MEXICO PHYSICIANS AND SURGEONS LLC,"2425 W 21ST STREET, CLOVIS, NM 88101",5057639800,Clinic/Center,Clinic/Center,Ambulatory Health Care Facilities,34.419198893656,-103.236690755647
1881644433,"GILA EYECARE, INC.","604 W SPRING ST, SILVER CITY, NM 88061",5753884464,Specialist,Specialist,Other Service Providers,32.769401445532,-108.280455557778
1053361634,ALBUQUERQUE VAMC,"3199 N WHITE SANDS BLVD, SUITE D10 - WHITE SANDS MALL, ALAMOGORDO, NM 88310",7023413152,VA Clinic/Center,Clinic/Center,Ambulatory Health Care Facilities,32.931192656962,-105.962794582149
1942251434,NEW MEXICO BONE AND JOINT INSTITUTE PC,"2301 INDIAN WELLS RD, SUITE A, ALAMOGORDO, NM 88310",5754340639,Specialist,Specialist,Other Service Providers,32.915303839858,-105.934563872511
1043261472,ALBUQUERQUE VAMC,"2410 W MAIN ST, ARTESIA, NM 88210",7023413152,VA Clinic/Center,Clinic/Center,Ambulatory Health Care Facilities,32.842680890997,-104.427965931203
1760433940,"ENCHANTMENT MEDICAL SUPPLY, LLC","1124 S SOLANO DR, SUITE D, LAS CRUCES, NM 88001",9152038108,Durable Medical Equipment & Medical Supplies,Durable Medical Equipment & Medical Supplies,Suppliers,32.301465726358,-106.762986452169
1639120603,"AHS LOVELACE MEDICAL GROUP, LLC","5406 GIBSON BLVD SE, ALBUQUERQUE, NM 87108",5052627777,Clinic/Center,Clinic/Center,Ambulatory Health Care Facilities,35.058267059763,-106.581977949101
1730130410,"TRANSRAY DIAGNOSTIC, INC.","703 OSUNA RD NE, SUITE 3, ALBUQUERQUE, NM 87113",5057176018,Portable X-ray and/or Other Portable Diagnostic Imaging Supplier,Portable X-ray and/or Other Portable Diagnostic Imaging Supplier,Suppliers,35.151032949529,-106.61768076241
1831141258,"PECOS VALLEY OF NEW MEXICO, LLC","2420 W PIERCE ST, STE 100, CARLSBAD, NM 88220",5056288837,General Practice Physician,General Practice,Allopathic & Osteopathic Physicians,32.441871653652,-104.258602630838
1093767212,"NATIONAL ORTHODONTIX MANAGEMENT, PLLC","920 N TELSHOR BLVD, SUITE E, LAS CRUCES, NM 88011",5755210900,Orthodontics and Dentofacial Orthopedics Dentistry,Dentist,Dental Providers,32.330090132705,-106.756525130198
1114979747,COUNSELING ASSOCIATES INC,"110 E MESCALERO, ROSWELL, NM 88201",5056231480,Mental Health Clinic/Center (Including Community Mental Health Center),Clinic/Center,Ambulatory Health Care Facilities,33.430516926695,-104.522788229003
1639121759,SURGERY CENTER OF EASTERN NEW MEXICO LLC,"2421 W 21ST ST, CLOVIS, NM 88101",5057638800,Ambulatory Surgical Clinic/Center,Clinic/Center,Ambulatory Health Care Facilities,34.419202709863,-103.236484679912
1821040957,AMARILLO VAMC,"921 E LLANO ESTACADO BLVD, CLOVIS, NM 88101",6153553451,VA Clinic/Center,Clinic/Center,Ambulatory Health Care Facilities,34.433837976794,-103.194939242939
1861444838,LAS CRUCES SURGERY CENTER LP,"4351 E LOHMAN AVE, SUITE 102, LAS CRUCES, NM 88011",5055323300,Ambulatory Surgical Clinic/Center,Clinic/Center,Ambulatory Health Care Facilities,32.324043464961,-106.725960080479
1730131848,"VIA CHRISTI MEDICAL CLINIC, INC.","100 E MANANA BLVD, UNIT 1, CLOVIS, NM 88101",5757422500,Family Medicine Physician,Family Medicine,Allopathic & Osteopathic Physicians,34.42716273912,-103.207078741731
1639121692,DOCTORS OF SANTA TERESA PC,"5290 MCNUTT ROAD, SANTA TERESA, NM 88008",5755891144,Family Medicine Physician,Family Medicine,Allopathic & Osteopathic Physicians,31.849234901334,-106.626547111914
1497707442,MESILLA VALLEY HEALTHCARE ASSOCIATES P.A.,"2020 S. SOLANO DR., SUITE C, LAS CRUCES, NM 88001",5055234880,Family Nurse Practitioner,Nurse Practitioner,Physician Assistants & Advanced Practice Nursing Providers,32.291651185052,-106.756799110136
1992757710,"AHS LOVELACE MEDICAL GROUP, LLC","5400 GIBSON BLVD SE, FLOOR 2, ELEVATOR B, ALBUQUERQUE, NM 87108",5052627174,Clinic/Center,Clinic/Center,Ambulatory Health Care Facilities,35.058267059767,-106.582040668944
1164475828,PC MARK RACE MD PLC,"1501 10TH ST, ALAMOGORDO, NM 88310",5754465900,Specialist,Specialist,Other Service Providers,32.899965953421,-105.942427556304
1164475208,SOUTHWEST SPORT AND SPINE CENTER INC,"2404 S LOCUST ST, STE 5, LAS CRUCES, NM 88001",5055214188,Physical Therapist,Physical Therapist,"Respiratory, Developmental, Rehabilitative and Restorative Service Providers",32.288474538425,-106.74877621347
1972556975,CARLSBAD MEDICAL CENTER LLC,"2430 W PIERCE ST, CARLSBAD, NM 88220",5058874100,Skilled Nursing Facility,Skilled Nursing Facility,Nursing & Custodial Care Facilities,32.441935990838,-104.258674886435
1164475232,"NEW MEXICO ONCOLOGY HEMATOLOGY CONSULTANTS, LTD.","4901 LANG AVE NE, ALBUQUERQUE, NM 87109",5058428171,Radiation Oncology Physician,Radiology,Allopathic & Osteopathic Physicians,35.173233925656,-106.590800115261
1427001759,ROSWELL HOSPITAL CORPORATION,"405 W COUNTRY CLUB RD, ROSWELL, NM 88201",5756244777,Internal Medicine Physician,Internal Medicine,Allopathic & Osteopathic Physicians,33.423349512279,-104.5275257115
1972556322,ALBUQUERQUE VAMC,"105 S CORONADO AVE, ESPANOLA, NM 87532",7023413152,VA Clinic/Center,Clinic/Center,Ambulatory Health Care Facilities,35.990320000399,-106.085137332722
1396799938,"PREMIER OB/GYN, LLC","5419 N LOVINGTON HWY, COMPLEX # 5, SUITE 6, HOBBS, NM 88240",5053926600,Obstetrics & Gynecology Physician,Obstetrics & Gynecology,Allopathic & Osteopathic Physicians,32.760623189424,-103.180845703793
1518910553,PRESBYTERIAN MEDICAL SERVICES,"1422 PASEO DE PERALTA, SANTA FE, NM 87501",5058203466,Counselor,Counselor,Behavioral Health & Social Service Providers,35.681273747238,-105.943628521285
1760435689,"MAXIM HEALTHCARE SERVICES, INC.","2155 LOUISIANA BLVD NE, SUITE 5100, ALBUQUERQUE, NM 87110",5058834444,Home Health Agency,Home Health,Agencies,35.101921728091,-106.568832792554
1770536641,ALBUQUERQUE VAMC,"3605 ENGLISH ROAD, FARMINGTON, NM 87402",7023413152,VA Clinic/Center,Clinic/Center,Ambulatory Health Care Facilities,36.760441985899,-108.148501827568
1700839628,ENDOSCOPY CENTER OF LAS CRUCES,"2407 S TELSHOR BLVD, LAS CRUCES, NM 88011",5055227697,Endoscopy Clinic/Center,Clinic/Center,Ambulatory Health Care Facilities,32.2933616,-106.7342336
1396799110,MILAGRO VEIN SOLUTIONS LLC,"490B W ZIA ROAD, SUITE A, SANTA FE, NM 87505",5059958346,Vascular Surgery Physician,Surgery,Allopathic & Osteopathic Physicians,35.646767653005,-105.95407000554
1477507069,"RIO GRANDE COUNSELING & GUIDANCE SERVICES, PA","1010 LAS LOMAS RD NE, SUITE 4, ALBUQUERQUE, NM 87102",5052468700,Clinical Social Worker,Social Worker,Behavioral Health & Social Service Providers,35.089108516709,-106.632519692782
1194779322,HOUSE CALLS OF NEW MEXICO LLC,"2129 OSUNA RD NE, ALBUQUERQUE, NM 87113",5058982468,Specialist,Specialist,Other Service Providers,35.153246485542,-106.606189028454
1417901612,HEALTHFRONT PC,"455 SAINT MICHAELS DR, SANTA FE, NM 87505",5059833361,Emergency Medicine Physician,Emergency Medicine,Allopathic & Osteopathic Physicians,35.65877450000001,-105.9457531
1538113055,"TAOS ORTHOPAEDIC INSTITUTE, PC","1219 GUSDORF RD, TAOS, NM 87571",5757580009,Preferred Provider Organization,Preferred Provider Organization,Managed Care Organizations,36.377695499533,-105.587453496113
1285688697,LEA REGIONAL HOSPITAL LLC,"5419 N LOVINGTON HWY, HOBBS, NM 88240",5054925000,Cardiovascular Disease Physician,Internal Medicine,Allopathic & Osteopathic Physicians,32.760623189424,-103.180845703793
1033163076,RIO PECOS MEDICAL ASSOCIATES LTD,"305 W COUNTRY CLUB RD, ROSWELL, NM 88201",5756226322,Specialist,Specialist,Other Service Providers,33.423324800218,-104.525525928529
1164476008,"PEAK MEDICAL LAS CRUCES, LLC","2905 MISSOURI AVE, LAS CRUCES, NM 88011",5755220404,Long Term Care Hospital,Long Term Care Hospital,Hospitals,32.300148557053,-106.736077976198
1659325504,PEAK MEDICAL NEW MEXICO NO. 3 LLC,"4210 SABANA GRANDE AVE SE, RIO RANCHO, NM 87124",5058926603,Skilled Nursing Facility,Skilled Nursing Facility,Nursing & Custodial Care Facilities,35.243076120123,-106.651971297291
1932153855,PEAK MEDICAL NEW MEXICO NO. 3 LLC,"5901 OURAY RD NW, ALBUQUERQUE, NM 87120",5058360023,Skilled Nursing Facility,Skilled Nursing Facility,Nursing & Custodial Care Facilities,35.112520153519,-106.705838088633
1952355885,"PEAK MEDICAL ROSWELL, LLC","3200 MISSION ARCH DR, ROSWELL, NM 88201",5756242583,Alzheimer Center (Dementia Center),Alzheimer Center (Dementia Center),Nursing & Custodial Care Facilities,33.4362772,-104.5093213
1841244779,OPEN MRI OF NEW MEXICO,"2700 FARMINGTON AVE, BLDG F2, FARMINGTON, NM 87401",5053276688,Magnetic Resonance Imaging (MRI) Internal Medicine Physician,Internal Medicine,Allopathic & Osteopathic Physicians,36.753997277433,-108.179827757587
1780639617,PEAK MEDICAL NEW MEXICO NO. 3 LLC,"8100 PALOMAS AVE NE, ALBUQUERQUE, NM 87109",5058214200,Skilled Nursing Facility,Skilled Nursing Facility,Nursing & Custodial Care Facilities,35.172720285079,-106.556855100486
1134174063,"NEW MEXICO HEALTHCARE SERVICES, LLC","2300 N MAIN ST STE 19, CLOVIS, NM 88101",5757690049,Speech-Language Pathologist,Speech-Language Pathologist,"Speech, Language and Hearing Service Providers",34.422303716063,-103.205465236619
1942255880,"PEAK MEDICAL FARMINGTON, LLC","806 W MAPLE ST, FARMINGTON, NM 87401",5053252910,Skilled Nursing Facility,Skilled Nursing Facility,Nursing & Custodial Care Facilities,36.724375280907,-108.215800268296
1295780146,"PEAK MEDICAL LAS CRUCES NO. 2, LLC","1005 LUJAN HILL RD, LAS CRUCES, NM 88007",5755234573,Alzheimer Center (Dementia Center),Alzheimer Center (Dementia Center),Nursing & Custodial Care Facilities,32.423786097338,-106.858869767742
1013962844,"NATIONWIDE HEARING SERVICES, INC.","1180 MALL DR, SUITE C, LAS CRUCES, NM 88011",5755211942,Exclusive Provider Organization,Exclusive Provider Organization,Managed Care Organizations,32.305035581403,-106.742820152598
1689629453,AHEARINGAID.COM,"1155 S TELSHOR BLVD, SUITE 306, LAS CRUCES, NM 88011",5055227610,Exclusive Provider Organization,Exclusive Provider Organization,Managed Care Organizations,32.30556854569,-106.738527924835
1740235142,"SILVERSTONE HEALTHCARE OF GALLUP, LLC","3720 CHURCH ROCK ST, GALLUP, NM 87301",5057222261,Skilled Nursing Facility,Skilled Nursing Facility,Nursing & Custodial Care Facilities,35.528394000725,-108.674014096539
1699720227,"PEAK MEDICAL GALLUP, LLC","306 E NIZHONI BLVD, GALLUP, NM 87301",5058639551,Skilled Nursing Facility,Skilled Nursing Facility,Nursing & Custodial Care Facilities,35.508365241444,-108.735210712127
1780639971,"DHHS, PHS, NAIHS, SHIPROCK HOSPITAL","US HIGHWAY 491 NORTH, SHIPROCK, NM 87420",5053686401,Dental Clinic/Center,Clinic/Center,Ambulatory Health Care Facilities,36.793088,-108.6893439
1437104882,BIG SPRING VAMC,"1301 N TURNER ST, HOBBS, NM 88240",6153553451,VA Clinic/Center,Clinic/Center,Ambulatory Health Care Facilities,32.712600449805,-103.136590765548
1912952169,ISD RENAL INC,"3961 E LOHMAN AVE, STE 29, LAS CRUCES, NM 88011",5755329437,End-Stage Renal Disease (ESRD) Treatment Clinic/Center,Clinic/Center,Ambulatory Health Care Facilities,32.320155943569,-106.733012858106
1356396451,"HEALTHCARE RESOURCES, LLC","717 ENCINO PL NE, SUITE 17, ALBUQUERQUE, NM 87102",5052437717,Internal Medicine Physician,Internal Medicine,Allopathic & Osteopathic Physicians,35.088052921758,-106.632318946944
1457306730,"SILVERSTONE HEALTHCARE OF BLOOMFIELD, LLC","803 HACIENDA LN, BLOOMFIELD, NM 87413",5056321823,Skilled Nursing Facility,Skilled Nursing Facility,Nursing & Custodial Care Facilities,36.71877925621,-107.982497152336
1235184326,DIGESTIVE DISEASE CONSULTANTS OF LAS CRUCES LLC,"4381 E LOHMAN AVE STE B, LAS CRUCES, NM 88011",5755227697,Specialist,Specialist,Other Service Providers,32.324169056223,-106.725705275112
1063467348,"SILVERSTONE HEALTHCARE OF CLAYTON, LLC","419 HARDING ST, CLAYTON, NM 88415",5053742353,Skilled Nursing Facility,Skilled Nursing Facility,Nursing & Custodial Care Facilities,36.453015382378,-103.19372438299
1457307407,"SILVERSTONE HEALTHCARE OF OF HOBBS, LLC","2101 N BENSING RD, HOBBS, NM 88240",5053971113,Skilled Nursing Facility,Skilled Nursing Facility,Nursing & Custodial Care Facilities,32.72326159308,-103.179272272693
1982650933,"SILVERSTONE HEALTHCARE OF LORDSBURG, LLC","603 HADECO, LORDSBURG, NM 88045",5055423539,Skilled Nursing Facility,Skilled Nursing Facility,Nursing & Custodial Care Facilities,32.3503605,-108.7086649
1013963081,"SILVERSTONE HEALTHCARE OF OF RATON, LLC","1660 HOSPITAL DR, RATON, NM 87740",5054452734,Skilled Nursing Facility,Skilled Nursing Facility,Nursing & Custodial Care Facilities,36.861206681535,-104.443377159073
1639125669,"SILVERSTONE HEALTHCARE OF ESPANOLA VALLEY, LLC","720 E HACIENDA ST, ESPANOLA, NM 87532",5057536769,Skilled Nursing Facility,Skilled Nursing Facility,Nursing & Custodial Care Facilities,36.005064430496,-106.060821267286
1427004340,"STEVEN B. ROHOLT, DDS, PC","10151 MONTGOMERY BLVD NE, SUITE 2-D, ALBUQUERQUE, NM 87111",5052923400,Oral and Maxillofacial Surgery (Dentist),Dentist,Dental Providers,35.130705637222,-106.527040913478
1427004449,JOE'S PHARMACY L.L.C.,"3646 HIGHWAY 47, PERALTA, NM 87042",5058693646,Community/Retail Pharmacy,Pharmacy,Suppliers,34.833497470435,-106.690559950461
1972559730,EL PASO VAMC,"3401 DEL RAY BLVD., LAS CRUCES, NM 88012",6153553451,VA Clinic/Center,Clinic/Center,Ambulatory Health Care Facilities,32.3142451,-106.7797529
1538115332,EAGLE AIR MED,"CROWNPOINT MUNICIPAL AIRPORT, CROWNPOINT, NM 87313",4356783222,Air Ambulance,Ambulance,Transportation Services,35.7509831,-108.1482088
1780630491,ROCKY MOUNTAIN ORTHOPEDICS INC,"518 W PUEBLO DR, ESPANOLA, NM 87532",5057473333,Orthopedic Physical Therapist,Physical Therapist,"Respiratory, Developmental, Rehabilitative and Restorative Service Providers",36.002618924853,-106.065965004007
1477509172,ALBUQUERQUE,"2075 NM HWY 602, GALLUP, NM 87301",7023413152,VA Clinic/Center,Clinic/Center,Ambulatory Health Care Facilities,35.5053782,-108.7417245
1376599936,EYEWORKS LTD,"6001 WINTER HAVEN NW, SUITE K, ALBUQUERQUE, NM 87120",5058909577,Medical Specialty Clinic/Center,Clinic/Center,Ambulatory Health Care Facilities,35.149651567964,-106.683340789918
1134175763,DEER OAKS MENTAL HEALTH ASSOCIATES PC,"3025 TERRACE DR, LAS CRUCES, NM 88011",8883656271,Clinical Psychologist,Psychologist,Behavioral Health & Social Service Providers,32.293571876129,-106.733212642156
1720034382,"SILVERSTONE HEALTHCARE OF SILVER CITY, LLC","3514 N FOWLER AVE, SILVER CITY, NM 88061",5053883127,Skilled Nursing Facility,Skilled Nursing Facility,Nursing & Custodial Care Facilities,32.798749052993,-108.261683092211
1134175383,"RUIDOSO HOME CARE, LLC","590 GAVILAN CANYON RD, RUIDOSO, NM 88345",5752580028,Community Based Hospice Care Agency,"Hospice Care, Community Based",Agencies,33.359993536221,-105.643904428492
1205882503,LAS CRUCES MEDICAL CENTER LLC,"4311 E LOHMAN AVE, LAS CRUCES, NM 88011",5055567610,General Acute Care Hospital,General Acute Care Hospital,Hospitals,32.323876009944,-106.726299820969
1649226028,FIVE STAR MONTEBELLO LLC,"10500 ACADEMY RD NE, ALBUQUERQUE, NM 87111",5052949944,Assisted Living Facility,Assisted Living Facility,Nursing & Custodial Care Facilities,35.154041925713,-106.522501966049
1255387734,"SILVERSTONE HEALTHCARE OF SANTA FE II, LLC","1650 GALISTEO ST, SANTA FE, NM 87508",5059848313,Skilled Nursing Facility,Skilled Nursing Facility,Nursing & Custodial Care Facilities,35.66203065342,-105.949468060902
1982650461,"SILVERSTONE HEALTHCARE OF SANTA FE I, LLC","635 HARKLE RD, SANTA FE, NM 87505",5059822574,Skilled Nursing Facility,Skilled Nursing Facility,Nursing & Custodial Care Facilities,35.66107150000001,-105.9523054
1609822931,LAS CRUCES MEDICAL CENTER LLC,"4311 E LOHMAN AVE, LAS CRUCES, NM 88011",5055567610,Rehabilitation Hospital Unit,Rehabilitation Unit,Hospital Units,32.323876009944,-106.726299820969
1528015476,"SPINE & PAIN INSTITUTE OF SANTA FE, LLC","435 ST. MICHAEL'S DRIVE, SUITE A-202, SANTA FE, NM 87505",5059835200,Specialist,Specialist,Other Service Providers,35.655964166742,-105.94145037809
1194772939,"PEAK MEDICAL ASSISTED LIVING, LLC","2884 N ROADRUNNER PKWY, LAS CRUCES, NM 88011",5755221110,Assisted Living Facility,Assisted Living Facility,Nursing & Custodial Care Facilities,32.353716526165,-106.752321111793
1992752471,TRANSITIONAL LIFESTYLES COMMUNITY INC.,"11000 SPAIN RD NE, BLDING D, ALBUQUERQUE, NM 87111",5052624230,Intellectual and/or Developmental Disabilities Community Based Residential Treatment Facility,"Community Based Residential Treatment Facility, Intellectual and/or Developmental Disabilities",Residential Treatment Facilities,35.140880751356,-106.5216895836
1821045329,"ALBUQUERQUE DERMATOLOGY ASSOCIATES, PA","4610 JEFFERSON LN NE, ALBUQUERQUE, NM 87109",5058724700,Procedural Dermatology Physician,Dermatology,Allopathic & Osteopathic Physicians,35.134152906459,-106.593328108838
1063469682,"ALTOMAR NEW MEXICO, LLC.","5312 RIO BRAVO DR, SUITE 6, SANTA TERESA, NM 88008",5758742211,Home Health Agency,Home Health,Agencies,31.8448613,-106.6088782
1669429189,ABEYTA PHYSICAL THERAPY & SPORTS MEDICINE INC,"114 E MOTEL DR, LORDSBURG, NM 88045",5053133438,Physical Therapist,Physical Therapist,"Respiratory, Developmental, Rehabilitative and Restorative Service Providers",32.350016097759,-108.7084106787
1851348148,SOUTHWEST AMBULANCE OF NEW MEXICO,"108 WEST DENNING, ROSWELL, NM 88203",4806276420,Ambulance,Ambulance,Transportation Services,33.306174226209,-104.48939024124
1063459147,"NATIONAL VISION, INC.","4500 N MAIN ST, ROSWELL, NM 88201",5056227262,Optometrist,Optometrist,Eye and Vision Services Providers,33.451679057875,-104.523443700533
1073550513,"EYE INSTITUTE OF ALBUQUERQUE, PC","4333 PAN AMERICAN FWY NE, SUITE B, ALBUQUERQUE, NM 87107",5052471073,Ophthalmology Physician,Ophthalmology,Allopathic & Osteopathic Physicians,35.127918430147,-106.618447881659
1427095306,"NATIONAL VISION, INC.","1 I 25 BYP, BELEN, NM 87002",5058611002,Eyewear Supplier,Eyewear Supplier,Suppliers,34.697204,-106.7683179
1316984834,UNITED SUPERMARKETS LLC,"4300 RIDGECREST DR SE, RIO RANCHO, NM 87124",5058922262,Durable Medical Equipment & Medical Supplies,Durable Medical Equipment & Medical Supplies,Suppliers,35.25476954454,-106.649800037487
1225075740,UNITED SUPERMARKETS LLC,"202 W CHURCH STREET, CARLSBAD, NM 88220",5758852165,Pharmacy,Pharmacy,Suppliers,32.428635950712,-104.226633381055
1134166655,UNITED SUPERMARKETS LLC,"12201 ACADEMY RD NE, ALBUQUERQUE, NM 87111",5052759733,Durable Medical Equipment & Medical Supplies,Durable Medical Equipment & Medical Supplies,Suppliers,35.152381963946,-106.499586311417
1780621573,M&M RESPIRATORY SERVICES,"385 RIO COMMUNITIES BLVD, BELEN, NM 87002",5058612011,Parenteral & Enteral Nutrition Supplies (DME),Durable Medical Equipment & Medical Supplies,Suppliers,34.646052365505,-106.731280114731
1164469045,"NATIONAL VISION, INC.","301 SAN MATEO BLVD SE, ALBUQUERQUE, NM 87108",5052559955,Eyewear Supplier,Eyewear Supplier,Suppliers,35.075841355661,-106.586309306346
1396782835,"LOVATO EYEWARE, LLC","4333 PAN AMERICAN FWY NE, SUITE B, ALBUQUERQUE, NM 87107",5052471073,Optometrist,Optometrist,Eye and Vision Services Providers,35.127918430147,-106.618447881659
1093752545,PAMELA O BLACK MD PA,"3820 COMMONS AVE NE, ALBUQUERQUE, NM 87109",5053431711,Physical Medicine & Rehabilitation Physician,Physical Medicine & Rehabilitation,Allopathic & Osteopathic Physicians,35.143598032438,-106.602949751661
1770520371,VENTANA THERAPY CENTER LIMITED,"141S ROADRUNNER PKWY, STE 111, LAS CRUCES, NM 88011",5055328210,Physical Therapy Clinic/Center,Clinic/Center,Ambulatory Health Care Facilities,32.324511122941,-106.735308763602
1255378097,SIERRA DERMATOLOGY PC,"3060 HIGHWAY 180 E, SILVER CITY, NM 88061",5753882743,Dermatology Physician,Dermatology,Allopathic & Osteopathic Physicians,32.786968208269,-108.245462381281
1790722346,CARLSBAD MEDICAL CENTER LLC,"2430 W PIERCE ST, CARLSBAD, NM 88220",5058874100,General Acute Care Hospital,General Acute Care Hospital,Hospitals,32.441935990838,-104.258674886435
1518904168,CARLSBAD MEDICAL CENTER LLC,"2430 W PIERCE ST, CARLSBAD, NM 88220",5058874100,Certified Registered Nurse Anesthetist,"Nurse Anesthetist, Certified Registered",Physician Assistants & Advanced Practice Nursing Providers,32.441935990838,-104.258674886435
1871530428,LEA REGIONAL HOSPITAL LLC,"5419 N LOVINGTON HWY, HOBBS, NM 88240",5054925000,Psychiatric Hospital Unit,Psychiatric Unit,Hospital Units,32.760623189424,-103.180845703793
1780621334,LEA REGIONAL HOSPITAL LLC,"5419 N LOVINGTON HWY, HOBBS, NM 88240",5054925000,Skilled Nursing Facility,Skilled Nursing Facility,Nursing & Custodial Care Facilities,32.760623189424,-103.180845703793
1942247598,LEA REGIONAL HOSPITAL LLC,"5419 N LOVINGTON HWY, HOBBS, NM 88240",5054925000,Rehabilitation Hospital Unit,Rehabilitation Unit,Hospital Units,32.760623189424,-103.180845703793
1548207046,WOMENS HEALTH CENTER P.C.,"2559 MEDICAL DR, SUITE D, ALAMOGORDO, NM 88310",5054342229,Obstetrics & Gynecology Physician,Obstetrics & Gynecology,Allopathic & Osteopathic Physicians,32.923194511631,-105.932984418082
1770520298,UNITED SUPERMARKETS LLC,"3001 S SAINT FRANCIS DR, SANTA FE, NM 87505",5059928638,Durable Medical Equipment & Medical Supplies,Durable Medical Equipment & Medical Supplies,Suppliers,35.646976135895,-105.956261130583
1689611105,UNITED SUPERMARKETS LLC,"3542 ZAFARANO DR, SANTA FE, NM 87507",5054712914,Durable Medical Equipment & Medical Supplies,Durable Medical Equipment & Medical Supplies,Suppliers,35.64036350059,-106.011696590742
1497792915,UNITED SUPERMARKETS LLC,"2351 MAIN ST SE, LOS LUNAS, NM 87031",5058652089,Durable Medical Equipment & Medical Supplies,Durable Medical Equipment & Medical Supplies,Suppliers,34.80451929602,-106.705372313975
1356388607,SCHRYVER MEDICAL SALES AND MARKETING LLC,"514 POPE ST NE, ALBUQUERQUE, NM 87107",3033710073,Portable X-ray and/or Other Portable Diagnostic Imaging Supplier,Portable X-ray and/or Other Portable Diagnostic Imaging Supplier,Suppliers,35.118195348373,-106.632588951692
1689611931,"NATIONAL VISION, INC.","2701 CARLISLE BLVD NE, ALBUQUERQUE, NM 87110",5058883637,Eyewear Supplier,Eyewear Supplier,Suppliers,35.111139871526,-106.604258747405
